[{"name":"les Escaldes","ascii":"les Escaldes","country":"AD","lat":42.50729,"lon":1.53414,"timezone":"Europe/Andorra"},{"name":"Andorra la Vella","ascii":"Andorra la Vella","country":"AD","lat":42.50779,"lon":1.52109,"timezone":"Europe/Andorra"},{"name":"Warīsān","ascii":"Warisan","country":"AE","lat":25.16744,"lon":55.40708,"timezone":"Asia/Dubai"},{"name":"Umm Suqaym","ascii":"Umm Suqaym","country":"AE","lat":25.15491,"lon":55.21015,"timezone":"Asia/Dubai"},{"name":"Umm Al Quwain City","ascii":"Umm Al Quwain City","country":"AE","lat":25.56473,"lon":55.55517,"timezone":"Asia/Dubai"},{"name":"Ţarīf Kalbā","ascii":"Tarif Kalba","country":"AE","lat":25.0695,"lon":56.33115,"timezone":"Asia/Dubai"},{"name":"Ar Rāshidīyah","ascii":"Ar Rashidiyah","country":"AE","lat":25.22499,"lon":55.38947,"timezone":"Asia/Dubai"},{"name":"Ras Al Khaimah","ascii":"Ras Al Khaimah","country":"AE","lat":25.78953,"lon":55.9432,"timezone":"Asia/Dubai"},{"name":"Zayed City","ascii":"Zayed City","country":"AE","lat":23.65416,"lon":53.70522,"timezone":"Asia/Dubai"},{"name":"Khawr Fakkān","ascii":"Khawr Fakkan","country":"AE","lat":25.33132,"lon":56.34199,"timezone":"Asia/Dubai"},{"name":"Kalbā","ascii":"Kalba","country":"AE","lat":25.0513,"lon":56.35422,"timezone":"Asia/Dubai"},{"name":"Jumayrā","ascii":"Jumayra","country":"AE","lat":25.20795,"lon":55.24969,"timezone":"Asia/Dubai"},{"name":"Dubai","ascii":"Dubai","country":"AE","lat":25.07725,"lon":55.30927,"timezone":"Asia/Dubai"},{"name":"Dibba Al-Fujairah","ascii":"Dibba Al-Fujairah","country":"AE","lat":25.59246,"lon":56.26176,"timezone":"Asia/Dubai"},{"name":"Dibba Al-Hisn","ascii":"Dibba Al-Hisn","country":"AE","lat":25.61955,"lon":56.27291,"timezone":"Asia/Dubai"},{"name":"Dayrah","ascii":"Dayrah","country":"AE","lat":25.27143,"lon":55.30207,"timezone":"Asia/Dubai"},{"name":"Sharjah","ascii":"Sharjah","country":"AE","lat":25.3342,"lon":55.41221,"timezone":"Asia/Dubai"},{"name":"Ar Ruways","ascii":"Ar Ruways","country":"AE","lat":24.11028,"lon":52.73056,"timezone":"Asia/Dubai"},{"name":"Ḩattā","ascii":"Hatta","country":"AE","lat":24.80073,"lon":56.12726,"timezone":"Asia/Dubai"},{"name":"Fujairah","ascii":"Fujairah","country":"AE","lat":25.11641,"lon":56.34141,"timezone":"Asia/Dubai"},{"name":"Al Ain City","ascii":"Al Ain City","country":"AE","lat":24.19167,"lon":55.76056,"timezone":"Asia/Dubai"},{"name":"Ajman","ascii":"Ajman","country":"AE","lat":25.40177,"lon":55.47878,"timezone":"Asia/Dubai"},{"name":"Adh Dhayd","ascii":"Adh Dhayd","country":"AE","lat":25.28812,"lon":55.88157,"timezone":"Asia/Dubai"},{"name":"Abu Dhabi","ascii":"Abu Dhabi","country":"AE","lat":24.45118,"lon":54.39696,"timezone":"Asia/Dubai"},{"name":"Abū Hayl","ascii":"Abu Hayl","country":"AE","lat":25.28413,"lon":55.33153,"timezone":"Asia/Dubai"},{"name":"As Saţwah","ascii":"As Satwah","country":"AE","lat":25.22192,"lon":55.27459,"timezone":"Asia/Dubai"},{"name":"Al Ḩamīdīyah","ascii":"Al Hamidiyah","country":"AE","lat":25.40001,"lon":55.52925,"timezone":"Asia/Dubai"},{"name":"Al Waheda","ascii":"Al Waheda","country":"AE","lat":25.29173,"lon":55.33822,"timezone":"Asia/Dubai"},{"name":"Al Karama","ascii":"Al Karama","country":"AE","lat":25.24004,"lon":55.30106,"timezone":"Asia/Dubai"},{"name":"Al Wasl","ascii":"Al Wasl","country":"AE","lat":25.19881,"lon":55.25565,"timezone":"Asia/Dubai"},{"name":"The Palm Jumeirah","ascii":"The Palm Jumeirah","country":"AE","lat":25.11607,"lon":55.13506,"timezone":"Asia/Dubai"},{"name":"Bur Dubai","ascii":"Bur Dubai","country":"AE","lat":25.26038,"lon":55.29891,"timezone":"Asia/Dubai"},{"name":"Khalifah A City","ascii":"Khalifah A City","country":"AE","lat":24.42588,"lon":54.605,"timezone":"Asia/Dubai"},{"name":"Mirdif","ascii":"Mirdif","country":"AE","lat":25.22443,"lon":55.41412,"timezone":"Asia/Dubai"},{"name":"Hawr al ‘Anz","ascii":"Hawr al 'Anz","country":"AE","lat":25.27744,"lon":55.33675,"timezone":"Asia/Dubai"},{"name":"Mankhūl","ascii":"Mankhul","country":"AE","lat":25.24612,"lon":55.29222,"timezone":"Asia/Dubai"},{"name":"Nāyf","ascii":"Nayf","country":"AE","lat":25.27139,"lon":55.30323,"timezone":"Asia/Dubai"},{"name":"Al Murar al Qadīm","ascii":"Al Murar al Qadim","country":"AE","lat":25.27576,"lon":55.30738,"timezone":"Asia/Dubai"},{"name":"Al Warqaa","ascii":"Al Warqaa","country":"AE","lat":25.19272,"lon":55.42013,"timezone":"Asia/Dubai"},{"name":"International City","ascii":"International City","country":"AE","lat":25.16383,"lon":55.40987,"timezone":"Asia/Dubai"},{"name":"Dubai Marina","ascii":"Dubai Marina","country":"AE","lat":25.08525,"lon":55.14646,"timezone":"Asia/Dubai"},{"name":"Dubai Internet City","ascii":"Dubai Internet City","country":"AE","lat":25.09538,"lon":55.16171,"timezone":"Asia/Dubai"},{"name":"Al Safa","ascii":"Al Safa","country":"AE","lat":25.17047,"lon":55.23336,"timezone":"Asia/Dubai"},{"name":"Ar Rumaylah","ascii":"Ar Rumaylah","country":"AE","lat":25.40338,"lon":55.4334,"timezone":"Asia/Dubai"},{"name":"Al Jurf","ascii":"Al Jurf","country":"AE","lat":25.41814,"lon":55.50791,"timezone":"Asia/Dubai"},{"name":"Al Majaz","ascii":"Al Majaz","country":"AE","lat":25.32354,"lon":55.38774,"timezone":"Asia/Dubai"},{"name":"Dubai Festival City","ascii":"Dubai Festival City","country":"AE","lat":25.22177,"lon":55.35733,"timezone":"Asia/Dubai"},{"name":"Dubai International Financial Centre","ascii":"Dubai International Financial Centre","country":"AE","lat":25.2106,"lon":55.27787,"timezone":"Asia/Dubai"},{"name":"Dubai Investments Park","ascii":"Dubai Investments Park","country":"AE","lat":25.00827,"lon":55.15682,"timezone":"Asia/Dubai"},{"name":"Jebel Ali","ascii":"Jebel Ali","country":"AE","lat":25.00255,"lon":55.10811,"timezone":"Asia/Dubai"},{"name":"Bani Yas City","ascii":"Bani Yas City","country":"AE","lat":24.30978,"lon":54.62944,"timezone":"Asia/Dubai"},{"name":"Musaffah","ascii":"Musaffah","country":"AE","lat":24.35893,"lon":54.48267,"timezone":"Asia/Dubai"},{"name":"Al Shamkhah City","ascii":"Al Shamkhah City","country":"AE","lat":24.39268,"lon":54.70779,"timezone":"Asia/Dubai"},{"name":"Reef Al Fujairah City","ascii":"Reef Al Fujairah City","country":"AE","lat":25.14479,"lon":56.24764,"timezone":"Asia/Dubai"},{"name":"Al Bada'a","ascii":"Al Bada'a","country":"AE","lat":25.22462,"lon":55.26888,"timezone":"Asia/Dubai"},{"name":"Al Muteena","ascii":"Al Muteena","country":"AE","lat":25.27375,"lon":55.32265,"timezone":"Asia/Dubai"},{"name":"Al Mizhar First","ascii":"Al Mizhar First","country":"AE","lat":25.24805,"lon":55.44128,"timezone":"Asia/Dubai"},{"name":"Dubai Silicon Oasis","ascii":"Dubai Silicon Oasis","country":"AE","lat":25.11985,"lon":55.38718,"timezone":"Asia/Dubai"},{"name":"Al Furjan","ascii":"Al Furjan","country":"AE","lat":25.02651,"lon":55.14565,"timezone":"Asia/Dubai"},{"name":"Business Bay","ascii":"Business Bay","country":"AE","lat":25.18544,"lon":55.26969,"timezone":"Asia/Dubai"},{"name":"Al Qusais 1","ascii":"Al Qusais 1","country":"AE","lat":25.27925,"lon":55.36995,"timezone":"Asia/Dubai"},{"name":"Halwan","ascii":"Halwan","country":"AE","lat":25.34586,"lon":55.42165,"timezone":"Asia/Dubai"},{"name":"Al Sajaah","ascii":"Al Sajaah","country":"AE","lat":25.31532,"lon":55.63211,"timezone":"Asia/Dubai"},{"name":"Lahbab","ascii":"Lahbab","country":"AE","lat":25.03763,"lon":55.59135,"timezone":"Asia/Dubai"},{"name":"Mohammed Bin Zayed City","ascii":"Mohammed Bin Zayed City","country":"AE","lat":24.34794,"lon":54.55368,"timezone":"Asia/Dubai"},{"name":"Zaranj","ascii":"Zaranj","country":"AF","lat":30.95962,"lon":61.86037,"timezone":"Asia/Kabul"},{"name":"Bāzār-e Yakāwlang","ascii":"Bazar-e Yakawlang","country":"AF","lat":34.73525,"lon":66.97379,"timezone":"Asia/Kabul"},{"name":"Taloqan","ascii":"Taloqan","country":"AF","lat":36.73605,"lon":69.53451,"timezone":"Asia/Kabul"},{"name":"Shīnḏanḏ","ascii":"Shindand","country":"AF","lat":33.30294,"lon":62.1474,"timezone":"Asia/Kabul"},{"name":"Shibirghān","ascii":"Shibirghan","country":"AF","lat":36.66757,"lon":65.7529,"timezone":"Asia/Kabul"},{"name":"Shahrak","ascii":"Shahrak","country":"AF","lat":34.10737,"lon":64.3052,"timezone":"Asia/Kabul"},{"name":"Sar-e Pul","ascii":"Sar-e Pul","country":"AF","lat":36.21544,"lon":65.93249,"timezone":"Asia/Kabul"},{"name":"Sang-e Chārak","ascii":"Sang-e Charak","country":"AF","lat":35.84972,"lon":66.43694,"timezone":"Asia/Kabul"},{"name":"Aībak","ascii":"Aibak","country":"AF","lat":36.26468,"lon":68.01551,"timezone":"Asia/Kabul"},{"name":"Rustāq","ascii":"Rustaq","country":"AF","lat":37.12604,"lon":69.83045,"timezone":"Asia/Kabul"},{"name":"Qarqīn","ascii":"Qarqin","country":"AF","lat":37.41853,"lon":66.04358,"timezone":"Asia/Kabul"},{"name":"Qarāwul","ascii":"Qarawul","country":"AF","lat":37.21959,"lon":68.7802,"timezone":"Asia/Kabul"},{"name":"Pul-e Khumrī","ascii":"Pul-e Khumri","country":"AF","lat":35.94458,"lon":68.71512,"timezone":"Asia/Kabul"},{"name":"Paghmān","ascii":"Paghman","country":"AF","lat":34.58787,"lon":68.95091,"timezone":"Asia/Kabul"},{"name":"Nīlī","ascii":"Nili","country":"AF","lat":33.72178,"lon":66.13023,"timezone":"Asia/Kabul"},{"name":"Nahrīn","ascii":"Nahrin","country":"AF","lat":36.0649,"lon":69.13343,"timezone":"Asia/Kabul"},{"name":"Maymana","ascii":"Maymana","country":"AF","lat":35.92139,"lon":64.78361,"timezone":"Asia/Kabul"},{"name":"Mehtar Lām","ascii":"Mehtar Lam","country":"AF","lat":34.67139,"lon":70.20944,"timezone":"Asia/Kabul"},{"name":"Mazār-e Sharīf","ascii":"Mazar-e Sharif","country":"AF","lat":36.70904,"lon":67.11087,"timezone":"Asia/Kabul"},{"name":"Lashkar Gāh","ascii":"Lashkar Gah","country":"AF","lat":31.59382,"lon":64.37161,"timezone":"Asia/Kabul"},{"name":"Kushk","ascii":"Kushk","country":"AF","lat":33.29565,"lon":61.95221,"timezone":"Asia/Kabul"},{"name":"Kunduz","ascii":"Kunduz","country":"AF","lat":36.72895,"lon":68.857,"timezone":"Asia/Kabul"},{"name":"Khōst","ascii":"Khost","country":"AF","lat":33.33951,"lon":69.92041,"timezone":"Asia/Kabul"},{"name":"Khulm","ascii":"Khulm","country":"AF","lat":36.69736,"lon":67.69826,"timezone":"Asia/Kabul"},{"name":"Khāsh","ascii":"Khash","country":"AF","lat":31.52919,"lon":62.79055,"timezone":"Asia/Kabul"},{"name":"Khān Neshīn","ascii":"Khan Neshin","country":"AF","lat":30.5488,"lon":63.7888,"timezone":"Asia/Kabul"},{"name":"Khanabad","ascii":"Khanabad","country":"AF","lat":36.68304,"lon":69.11279,"timezone":"Asia/Kabul"},{"name":"Karukh","ascii":"Karukh","country":"AF","lat":34.48108,"lon":62.5863,"timezone":"Asia/Kabul"},{"name":"Kandahār","ascii":"Kandahar","country":"AF","lat":31.61332,"lon":65.71013,"timezone":"Asia/Kabul"},{"name":"Kabul","ascii":"Kabul","country":"AF","lat":34.52813,"lon":69.17233,"timezone":"Asia/Kabul"},{"name":"Jurm","ascii":"Jurm","country":"AF","lat":36.86477,"lon":70.83421,"timezone":"Asia/Kabul"},{"name":"Jalālābād","ascii":"Jalalabad","country":"AF","lat":34.42647,"lon":70.45153,"timezone":"Asia/Kabul"},{"name":"Jabal os Saraj","ascii":"Jabal os Saraj","country":"AF","lat":35.11833,"lon":69.23778,"timezone":"Asia/Kabul"},{"name":"Herāt","ascii":"Herat","country":"AF","lat":34.34817,"lon":62.19967,"timezone":"Asia/Kabul"},{"name":"Ghormach","ascii":"Ghormach","country":"AF","lat":35.73062,"lon":63.78264,"timezone":"Asia/Kabul"},{"name":"Ghazni","ascii":"Ghazni","country":"AF","lat":33.55391,"lon":68.42096,"timezone":"Asia/Kabul"},{"name":"Gereshk","ascii":"Gereshk","country":"AF","lat":31.82089,"lon":64.57005,"timezone":"Asia/Kabul"},{"name":"Gardez","ascii":"Gardez","country":"AF","lat":33.59744,"lon":69.22592,"timezone":"Asia/Kabul"},{"name":"Fayzabad","ascii":"Fayzabad","country":"AF","lat":37.11664,"lon":70.58002,"timezone":"Asia/Kabul"},{"name":"Farah","ascii":"Farah","country":"AF","lat":32.37451,"lon":62.11638,"timezone":"Asia/Kabul"},{"name":"Istālif","ascii":"Istalif","country":"AF","lat":34.83268,"lon":69.07756,"timezone":"Asia/Kabul"},{"name":"Eslam Qaleh","ascii":"Eslam Qaleh","country":"AF","lat":34.66667,"lon":61.06667,"timezone":"Asia/Kabul"},{"name":"Charikar","ascii":"Charikar","country":"AF","lat":35.01361,"lon":69.17139,"timezone":"Asia/Kabul"},{"name":"Baraki Barak","ascii":"Baraki Barak","country":"AF","lat":33.96744,"lon":68.9492,"timezone":"Asia/Kabul"},{"name":"Bāmyān","ascii":"Bamyan","country":"AF","lat":34.82156,"lon":67.82734,"timezone":"Asia/Kabul"},{"name":"Balkh","ascii":"Balkh","country":"AF","lat":36.75635,"lon":66.8972,"timezone":"Asia/Kabul"},{"name":"Bahārak","ascii":"Baharak","country":"AF","lat":37.00254,"lon":70.90664,"timezone":"Asia/Kabul"},{"name":"Baghlān","ascii":"Baghlan","country":"AF","lat":36.13068,"lon":68.70829,"timezone":"Asia/Kabul"},{"name":"Ārt Khwājah","ascii":"Art Khwajah","country":"AF","lat":37.08571,"lon":69.47958,"timezone":"Asia/Kabul"},{"name":"Āsmār","ascii":"Asmar","country":"AF","lat":35.03333,"lon":71.35809,"timezone":"Asia/Kabul"},{"name":"Asadābād","ascii":"Asadabad","country":"AF","lat":34.87311,"lon":71.14697,"timezone":"Asia/Kabul"},{"name":"Andkhoy","ascii":"Andkhoy","country":"AF","lat":36.95293,"lon":65.12376,"timezone":"Asia/Kabul"},{"name":"Bāzārak","ascii":"Bazarak","country":"AF","lat":35.31292,"lon":69.51519,"timezone":"Asia/Kabul"},{"name":"Markaz-e Woluswalī-ye Āchīn","ascii":"Markaz-e Woluswali-ye Achin","country":"AF","lat":34.12583,"lon":70.70778,"timezone":"Asia/Kabul"},{"name":"Saint John’s","ascii":"Saint John's","country":"AG","lat":17.12096,"lon":-61.84329,"timezone":"America/Antigua"},{"name":"The Valley","ascii":"The Valley","country":"AI","lat":18.21704,"lon":-63.05783,"timezone":"America/Anguilla"},{"name":"Sarandë","ascii":"Sarande","country":"AL","lat":39.87534,"lon":20.00477,"timezone":"Europe/Tirane"},{"name":"Pogradec","ascii":"Pogradec","country":"AL","lat":40.9025,"lon":20.6525,"timezone":"Europe/Tirane"},{"name":"Librazhd","ascii":"Librazhd","country":"AL","lat":41.17944,"lon":20.315,"timezone":"Europe/Tirane"},{"name":"Kukës","ascii":"Kukes","country":"AL","lat":42.07694,"lon":20.42194,"timezone":"Europe/Tirane"},{"name":"Korçë","ascii":"Korce","country":"AL","lat":40.61861,"lon":20.78083,"timezone":"Europe/Tirane"},{"name":"Gjirokastër","ascii":"Gjirokaster","country":"AL","lat":40.07583,"lon":20.13889,"timezone":"Europe/Tirane"},{"name":"Elbasan","ascii":"Elbasan","country":"AL","lat":41.11138,"lon":20.08224,"timezone":"Europe/Tirane"},{"name":"Bulqizë","ascii":"Bulqize","country":"AL","lat":41.49167,"lon":20.22194,"timezone":"Europe/Tirane"},{"name":"Vlorë","ascii":"Vlore","country":"AL","lat":40.4696,"lon":19.48379,"timezone":"Europe/Tirane"},{"name":"Tirana","ascii":"Tirana","country":"AL","lat":41.32744,"lon":19.81866,"timezone":"Europe/Tirane"},{"name":"Shkodër","ascii":"Shkoder","country":"AL","lat":42.06828,"lon":19.51258,"timezone":"Europe/Tirane"},{"name":"Rrashbull","ascii":"Rrashbull","country":"AL","lat":41.32278,"lon":19.51028,"timezone":"Europe/Tirane"},{"name":"Peqin","ascii":"Peqin","country":"AL","lat":41.04611,"lon":19.75111,"timezone":"Europe/Tirane"},{"name":"Patos Fshat","ascii":"Patos Fshat","country":"AL","lat":40.64278,"lon":19.65083,"timezone":"Europe/Tirane"},{"name":"Patos","ascii":"Patos","country":"AL","lat":40.68333,"lon":19.61944,"timezone":"Europe/Tirane"},{"name":"Lushnjë","ascii":"Lushnje","country":"AL","lat":40.94194,"lon":19.705,"timezone":"Europe/Tirane"},{"name":"Lezhë","ascii":"Lezhe","country":"AL","lat":41.78361,"lon":19.64361,"timezone":"Europe/Tirane"},{"name":"Kuçovë","ascii":"Kucove","country":"AL","lat":40.80028,"lon":19.91667,"timezone":"Europe/Tirane"},{"name":"Krujë","ascii":"Kruje","country":"AL","lat":41.50917,"lon":19.79278,"timezone":"Europe/Tirane"},{"name":"Kavajë","ascii":"Kavaje","country":"AL","lat":41.18556,"lon":19.55694,"timezone":"Europe/Tirane"},{"name":"Fushë-Krujë","ascii":"Fushe-Kruje","country":"AL","lat":41.47833,"lon":19.71778,"timezone":"Europe/Tirane"},{"name":"Fier-Çifçi","ascii":"Fier-Cifci","country":"AL","lat":40.71667,"lon":19.56667,"timezone":"Europe/Tirane"},{"name":"Fier","ascii":"Fier","country":"AL","lat":40.7251,"lon":19.55823,"timezone":"Europe/Tirane"},{"name":"Durrës","ascii":"Durres","country":"AL","lat":41.32355,"lon":19.45469,"timezone":"Europe/Tirane"},{"name":"Berat","ascii":"Berat","country":"AL","lat":40.70583,"lon":19.95222,"timezone":"Europe/Tirane"},{"name":"Kapan","ascii":"Kapan","country":"AM","lat":39.20762,"lon":46.40678,"timezone":"Asia/Yerevan"},{"name":"Goris","ascii":"Goris","country":"AM","lat":39.51111,"lon":46.34168,"timezone":"Asia/Yerevan"},{"name":"Artashat","ascii":"Artashat","country":"AM","lat":39.95484,"lon":44.54874,"timezone":"Asia/Yerevan"},{"name":"Ararat","ascii":"Ararat","country":"AM","lat":39.85494,"lon":44.6947,"timezone":"Asia/Yerevan"},{"name":"Yerevan","ascii":"Yerevan","country":"AM","lat":40.17765,"lon":44.5126,"timezone":"Asia/Yerevan"},{"name":"Vagharshapat","ascii":"Vagharshapat","country":"AM","lat":40.16557,"lon":44.29462,"timezone":"Asia/Yerevan"},{"name":"Sevan","ascii":"Sevan","country":"AM","lat":40.548,"lon":44.95314,"timezone":"Asia/Yerevan"},{"name":"Masis","ascii":"Masis","country":"AM","lat":40.06595,"lon":44.43669,"timezone":"Asia/Yerevan"},{"name":"Vanadzor","ascii":"Vanadzor","country":"AM","lat":40.8074,"lon":44.49704,"timezone":"Asia/Yerevan"},{"name":"Gavar","ascii":"Gavar","country":"AM","lat":40.35398,"lon":45.12386,"timezone":"Asia/Yerevan"},{"name":"Ijevan","ascii":"Ijevan","country":"AM","lat":40.88037,"lon":45.14776,"timezone":"Asia/Yerevan"},{"name":"Hrazdan","ascii":"Hrazdan","country":"AM","lat":40.5169,"lon":44.75591,"timezone":"Asia/Yerevan"},{"name":"Armavir","ascii":"Armavir","country":"AM","lat":40.15553,"lon":44.0388,"timezone":"Asia/Yerevan"},{"name":"Gyumri","ascii":"Gyumri","country":"AM","lat":40.79305,"lon":43.84635,"timezone":"Asia/Yerevan"},{"name":"Dilijan","ascii":"Dilijan","country":"AM","lat":40.74037,"lon":44.86344,"timezone":"Asia/Yerevan"},{"name":"Davtashen","ascii":"Davtashen","country":"AM","lat":40.21642,"lon":44.48088,"timezone":"Asia/Yerevan"},{"name":"Charentsavan","ascii":"Charentsavan","country":"AM","lat":40.40289,"lon":44.64447,"timezone":"Asia/Yerevan"},{"name":"Avan","ascii":"Avan","country":"AM","lat":40.21436,"lon":44.57846,"timezone":"Asia/Yerevan"},{"name":"Ashtarak","ascii":"Ashtarak","country":"AM","lat":40.2976,"lon":44.36152,"timezone":"Asia/Yerevan"},{"name":"Artik","ascii":"Artik","country":"AM","lat":40.61918,"lon":43.97207,"timezone":"Asia/Yerevan"},{"name":"Abovyan","ascii":"Abovyan","country":"AM","lat":40.2717,"lon":44.63342,"timezone":"Asia/Yerevan"},{"name":"Erebuni","ascii":"Erebuni","country":"AM","lat":40.13309,"lon":44.53009,"timezone":"Asia/Yerevan"},{"name":"Nor Nork","ascii":"Nor Nork","country":"AM","lat":40.19661,"lon":44.5669,"timezone":"Asia/Yerevan"},{"name":"Ajapnyak","ascii":"Ajapnyak","country":"AM","lat":40.19917,"lon":44.47056,"timezone":"Asia/Yerevan"},{"name":"Kanaker-Zeytun","ascii":"Kanaker-Zeytun","country":"AM","lat":40.22,"lon":44.53833,"timezone":"Asia/Yerevan"},{"name":"Malatia-Sebastia","ascii":"Malatia-Sebastia","country":"AM","lat":40.17396,"lon":44.4457,"timezone":"Asia/Yerevan"},{"name":"Kentron","ascii":"Kentron","country":"AM","lat":40.17806,"lon":44.51303,"timezone":"Asia/Yerevan"},{"name":"Shengavit","ascii":"Shengavit","country":"AM","lat":40.1557,"lon":44.4779,"timezone":"Asia/Yerevan"},{"name":"Arabkir","ascii":"Arabkir","country":"AM","lat":40.20624,"lon":44.50365,"timezone":"Asia/Yerevan"},{"name":"Saurimo","ascii":"Saurimo","country":"AO","lat":-9.66078,"lon":20.39155,"timezone":"Africa/Luanda"},{"name":"Lucapa","ascii":"Lucapa","country":"AO","lat":-8.41915,"lon":20.74466,"timezone":"Africa/Luanda"},{"name":"Dundo","ascii":"Dundo","country":"AO","lat":-7.36643,"lon":20.81557,"timezone":"Africa/Luanda"},{"name":"Chitato","ascii":"Chitato","country":"AO","lat":-7.3,"lon":20.73333,"timezone":"Africa/Luanda"},{"name":"Cassanguidi","ascii":"Cassanguidi","country":"AO","lat":-7.48367,"lon":21.30339,"timezone":"Africa/Luanda"},{"name":"Lumbala","ascii":"Lumbala","country":"AO","lat":-14.10165,"lon":21.43531,"timezone":"Africa/Luanda"},{"name":"Luau","ascii":"Luau","country":"AO","lat":-10.70727,"lon":22.22466,"timezone":"Africa/Luanda"},{"name":"Cazombo","ascii":"Cazombo","country":"AO","lat":-11.89914,"lon":22.90216,"timezone":"Africa/Luanda"},{"name":"Nzagi","ascii":"Nzagi","country":"AO","lat":-8.38549,"lon":15.30126,"timezone":"Africa/Luanda"},{"name":"Viana","ascii":"Viana","country":"AO","lat":-8.90553,"lon":13.37499,"timezone":"Africa/Luanda"},{"name":"Uíge","ascii":"Uige","country":"AO","lat":-7.60874,"lon":15.06131,"timezone":"Africa/Luanda"},{"name":"Úcua","ascii":"Ucua","country":"AO","lat":-8.65157,"lon":14.15653,"timezone":"Africa/Luanda"},{"name":"Tombôco","ascii":"Tomboco","country":"AO","lat":-6.80517,"lon":13.33017,"timezone":"Africa/Luanda"},{"name":"Soyo","ascii":"Soyo","country":"AO","lat":-6.1349,"lon":12.36894,"timezone":"Africa/Luanda"},{"name":"Songo","ascii":"Songo","country":"AO","lat":-7.35207,"lon":14.84629,"timezone":"Africa/Luanda"},{"name":"Sanza Pombo","ascii":"Sanza Pombo","country":"AO","lat":-7.31473,"lon":16.0024,"timezone":"Africa/Luanda"},{"name":"Piri","ascii":"Piri","country":"AO","lat":-8.53412,"lon":14.43555,"timezone":"Africa/Luanda"},{"name":"Pango Aluquém","ascii":"Pango Aluquem","country":"AO","lat":-8.71311,"lon":14.46292,"timezone":"Africa/Luanda"},{"name":"N'zeto","ascii":"N'zeto","country":"AO","lat":-7.228,"lon":12.86956,"timezone":"Africa/Luanda"},{"name":"Negage","ascii":"Negage","country":"AO","lat":-7.75938,"lon":15.2722,"timezone":"Africa/Luanda"},{"name":"N'dalatando","ascii":"N'dalatando","country":"AO","lat":-9.29782,"lon":14.91162,"timezone":"Africa/Luanda"},{"name":"Muxaluando","ascii":"Muxaluando","country":"AO","lat":-8.12307,"lon":14.28838,"timezone":"Africa/Luanda"},{"name":"Mussende","ascii":"Mussende","country":"AO","lat":-10.5143,"lon":16.0199,"timezone":"Africa/Luanda"},{"name":"Mbanza Kongo","ascii":"Mbanza Kongo","country":"AO","lat":-6.26667,"lon":14.23833,"timezone":"Africa/Luanda"},{"name":"Maquela do Zombo","ascii":"Maquela do Zombo","country":"AO","lat":-6.05716,"lon":15.10971,"timezone":"Africa/Luanda"},{"name":"Malanje","ascii":"Malanje","country":"AO","lat":-9.54015,"lon":16.34096,"timezone":"Africa/Luanda"},{"name":"Maianga","ascii":"Maianga","country":"AO","lat":-8.84693,"lon":13.23698,"timezone":"Africa/Luanda"},{"name":"Mabubas","ascii":"Mabubas","country":"AO","lat":-8.52432,"lon":13.68622,"timezone":"Africa/Luanda"},{"name":"Lucala","ascii":"Lucala","country":"AO","lat":-9.27268,"lon":15.25206,"timezone":"Africa/Luanda"},{"name":"Lubalo","ascii":"Lubalo","country":"AO","lat":-9.15445,"lon":19.28136,"timezone":"Africa/Luanda"},{"name":"Luanda","ascii":"Luanda","country":"AO","lat":-8.83682,"lon":13.23432,"timezone":"Africa/Luanda"},{"name":"Kunda dya Baze","ascii":"Kunda dya Baze","country":"AO","lat":-8.90769,"lon":17.05339,"timezone":"Africa/Luanda"},{"name":"Benfica","ascii":"Benfica","country":"AO","lat":-8.94432,"lon":13.16431,"timezone":"Africa/Luanda"},{"name":"Gombe","ascii":"Gombe","country":"AO","lat":-8.12439,"lon":14.29081,"timezone":"Africa/Luanda"},{"name":"Golungo Alto","ascii":"Golungo Alto","country":"AO","lat":-9.13333,"lon":14.76667,"timezone":"Africa/Luanda"},{"name":"Dondo","ascii":"Dondo","country":"AO","lat":-9.68456,"lon":14.42788,"timezone":"Africa/Luanda"},{"name":"Dondo","ascii":"Dondo","country":"AO","lat":-9.05,"lon":15.31667,"timezone":"Africa/Luanda"},{"name":"Cuímba","ascii":"Cuimba","country":"AO","lat":-6.12085,"lon":14.62086,"timezone":"Africa/Luanda"},{"name":"Cuilo","ascii":"Cuilo","country":"AO","lat":-8.23619,"lon":19.52566,"timezone":"Africa/Luanda"},{"name":"Cuango-Luzamba","ascii":"Cuango-Luzamba","country":"AO","lat":-9.14583,"lon":18.04453,"timezone":"Africa/Luanda"},{"name":"Cazombo","ascii":"Cazombo","country":"AO","lat":-8.73204,"lon":15.37124,"timezone":"Africa/Luanda"},{"name":"Caxito","ascii":"Caxito","country":"AO","lat":-8.57848,"lon":13.66425,"timezone":"Africa/Luanda"},{"name":"Cangandala","ascii":"Cangandala","country":"AO","lat":-9.78333,"lon":16.43333,"timezone":"Africa/Luanda"},{"name":"Canacassala","ascii":"Canacassala","country":"AO","lat":-8.16263,"lon":14.11663,"timezone":"Africa/Luanda"},{"name":"Camabatela","ascii":"Camabatela","country":"AO","lat":-8.18812,"lon":15.37495,"timezone":"Africa/Luanda"},{"name":"Calumbo","ascii":"Calumbo","country":"AO","lat":-9.14692,"lon":13.41936,"timezone":"Africa/Luanda"},{"name":"Cage Mazumbo","ascii":"Cage Mazumbo","country":"AO","lat":-8.29968,"lon":14.34494,"timezone":"Africa/Luanda"},{"name":"Cacuso","ascii":"Cacuso","country":"AO","lat":-9.42102,"lon":15.74668,"timezone":"Africa/Luanda"},{"name":"Cacuaco","ascii":"Cacuaco","country":"AO","lat":-8.7798,"lon":13.37478,"timezone":"Africa/Luanda"},{"name":"Cabinda","ascii":"Cabinda","country":"AO","lat":-5.56198,"lon":12.19476,"timezone":"Africa/Luanda"},{"name":"Bula Atumba","ascii":"Bula Atumba","country":"AO","lat":-8.67417,"lon":14.797,"timezone":"Africa/Luanda"},{"name":"Buco Zau","ascii":"Buco Zau","country":"AO","lat":-4.76667,"lon":12.55,"timezone":"Africa/Luanda"},{"name":"Belize","ascii":"Belize","country":"AO","lat":-4.65,"lon":12.76667,"timezone":"Africa/Luanda"},{"name":"Barra do Dande","ascii":"Barra do Dande","country":"AO","lat":-8.47175,"lon":13.37011,"timezone":"Africa/Luanda"},{"name":"Bailundo","ascii":"Bailundo","country":"AO","lat":-9.57499,"lon":15.99442,"timezone":"Africa/Luanda"},{"name":"Gama","ascii":"Gama","country":"AO","lat":-8.5675,"lon":13.47639,"timezone":"Africa/Luanda"},{"name":"Cazenga","ascii":"Cazenga","country":"AO","lat":-8.83796,"lon":13.28399,"timezone":"Africa/Luanda"},{"name":"Golfe","ascii":"Golfe","country":"AO","lat":-8.86639,"lon":13.26173,"timezone":"Africa/Luanda"},{"name":"Camama","ascii":"Camama","country":"AO","lat":-8.93611,"lon":13.26518,"timezone":"Africa/Luanda"},{"name":"Talatona","ascii":"Talatona","country":"AO","lat":-8.91783,"lon":13.18562,"timezone":"Africa/Luanda"},{"name":"Xangongo","ascii":"Xangongo","country":"AO","lat":-16.7444,"lon":14.97494,"timezone":"Africa/Luanda"},{"name":"Alto Hama","ascii":"Alto Hama","country":"AO","lat":-12.23333,"lon":15.55,"timezone":"Africa/Luanda"},{"name":"Virei","ascii":"Virei","country":"AO","lat":-15.727,"lon":12.94961,"timezone":"Africa/Luanda"},{"name":"Ucuma","ascii":"Ucuma","country":"AO","lat":-12.96121,"lon":15.05958,"timezone":"Africa/Luanda"},{"name":"Ucu Seles","ascii":"Ucu Seles","country":"AO","lat":-11.41237,"lon":14.30663,"timezone":"Africa/Luanda"},{"name":"Tômbua","ascii":"Tombua","country":"AO","lat":-15.80394,"lon":11.84485,"timezone":"Africa/Luanda"},{"name":"Sumbe","ascii":"Sumbe","country":"AO","lat":-11.20605,"lon":13.84371,"timezone":"Africa/Luanda"},{"name":"Quipungo","ascii":"Quipungo","country":"AO","lat":-14.81909,"lon":14.53504,"timezone":"Africa/Luanda"},{"name":"Quibala","ascii":"Quibala","country":"AO","lat":-10.73366,"lon":14.97995,"timezone":"Africa/Luanda"},{"name":"Porto Amboim","ascii":"Porto Amboim","country":"AO","lat":-10.73251,"lon":13.76844,"timezone":"Africa/Luanda"},{"name":"Ondjiva","ascii":"Ondjiva","country":"AO","lat":-17.06667,"lon":15.73333,"timezone":"Africa/Luanda"},{"name":"Nharêa","ascii":"Nharea","country":"AO","lat":-11.47512,"lon":16.96496,"timezone":"Africa/Luanda"},{"name":"Mossamedes","ascii":"Mossamedes","country":"AO","lat":-15.19611,"lon":12.15222,"timezone":"Africa/Luanda"},{"name":"Mungo","ascii":"Mungo","country":"AO","lat":-11.83268,"lon":16.23613,"timezone":"Africa/Luanda"},{"name":"Menongue","ascii":"Menongue","country":"AO","lat":-14.6585,"lon":17.69099,"timezone":"Africa/Luanda"},{"name":"Matala","ascii":"Matala","country":"AO","lat":-14.73272,"lon":15.03479,"timezone":"Africa/Luanda"},{"name":"Luquembo","ascii":"Luquembo","country":"AO","lat":-10.73912,"lon":17.71766,"timezone":"Africa/Luanda"},{"name":"Luena","ascii":"Luena","country":"AO","lat":-11.78333,"lon":19.91667,"timezone":"Africa/Luanda"},{"name":"Lubango","ascii":"Lubango","country":"AO","lat":-14.91717,"lon":13.4925,"timezone":"Africa/Luanda"},{"name":"Longonjo","ascii":"Longonjo","country":"AO","lat":-12.90795,"lon":15.24845,"timezone":"Africa/Luanda"},{"name":"Londuimbali","ascii":"Londuimbali","country":"AO","lat":-12.23712,"lon":15.31697,"timezone":"Africa/Luanda"},{"name":"Lobito","ascii":"Lobito","country":"AO","lat":-12.3644,"lon":13.53601,"timezone":"Africa/Luanda"},{"name":"Cuíto","ascii":"Cuito","country":"AO","lat":-12.38333,"lon":16.93333,"timezone":"Africa/Luanda"},{"name":"Catchiungo","ascii":"Catchiungo","country":"AO","lat":-12.56598,"lon":16.22589,"timezone":"Africa/Luanda"},{"name":"Humbe","ascii":"Humbe","country":"AO","lat":-16.6864,"lon":14.90317,"timezone":"Africa/Luanda"},{"name":"Huambo","ascii":"Huambo","country":"AO","lat":-12.77611,"lon":15.73917,"timezone":"Africa/Luanda"},{"name":"Ganda","ascii":"Ganda","country":"AO","lat":-13.01592,"lon":14.63502,"timezone":"Africa/Luanda"},{"name":"Gabela","ascii":"Gabela","country":"AO","lat":-10.85147,"lon":14.37993,"timezone":"Africa/Luanda"},{"name":"Dombe Grande","ascii":"Dombe Grande","country":"AO","lat":-12.95167,"lon":13.1025,"timezone":"Africa/Luanda"},{"name":"Cuemba","ascii":"Cuemba","country":"AO","lat":-12.15,"lon":18.08333,"timezone":"Africa/Luanda"},{"name":"Cubal do Lumbo","ascii":"Cubal do Lumbo","country":"AO","lat":-12.31261,"lon":14.1265,"timezone":"Africa/Luanda"},{"name":"Cubal","ascii":"Cubal","country":"AO","lat":-13.03865,"lon":14.2455,"timezone":"Africa/Luanda"},{"name":"Conda","ascii":"Conda","country":"AO","lat":-11.10862,"lon":14.33621,"timezone":"Africa/Luanda"},{"name":"Chitembo","ascii":"Chitembo","country":"AO","lat":-13.55,"lon":16.63333,"timezone":"Africa/Luanda"},{"name":"Chinguar","ascii":"Chinguar","country":"AO","lat":-12.55708,"lon":16.33805,"timezone":"Africa/Luanda"},{"name":"Chindumbo","ascii":"Chindumbo","country":"AO","lat":-11.95,"lon":14.46667,"timezone":"Africa/Luanda"},{"name":"Cela","ascii":"Cela","country":"AO","lat":-11.42173,"lon":15.12345,"timezone":"Africa/Luanda"},{"name":"Catumbela","ascii":"Catumbela","country":"AO","lat":-12.43002,"lon":13.54677,"timezone":"Africa/Luanda"},{"name":"Catabola","ascii":"Catabola","country":"AO","lat":-12.15,"lon":17.28333,"timezone":"Africa/Luanda"},{"name":"Capunda","ascii":"Capunda","country":"AO","lat":-11.13333,"lon":14.46667,"timezone":"Africa/Luanda"},{"name":"Camucuio","ascii":"Camucuio","country":"AO","lat":-14.11382,"lon":13.24061,"timezone":"Africa/Luanda"},{"name":"Cambundi Catembo","ascii":"Cambundi Catembo","country":"AO","lat":-10.07531,"lon":17.55058,"timezone":"Africa/Luanda"},{"name":"Camacupa","ascii":"Camacupa","country":"AO","lat":-12.01667,"lon":17.48333,"timezone":"Africa/Luanda"},{"name":"Caluquembe","ascii":"Caluquembe","country":"AO","lat":-13.86667,"lon":14.43333,"timezone":"Africa/Luanda"},{"name":"Calulo","ascii":"Calulo","country":"AO","lat":-10.00055,"lon":14.89519,"timezone":"Africa/Luanda"},{"name":"Caála","ascii":"Caala","country":"AO","lat":-12.8525,"lon":15.56056,"timezone":"Africa/Luanda"},{"name":"Bocoio","ascii":"Bocoio","country":"AO","lat":-12.47017,"lon":14.13688,"timezone":"Africa/Luanda"},{"name":"Benguela","ascii":"Benguela","country":"AO","lat":-12.57674,"lon":13.40268,"timezone":"Africa/Luanda"},{"name":"Balombo","ascii":"Balombo","country":"AO","lat":-12.35426,"lon":14.77232,"timezone":"Africa/Luanda"},{"name":"Baía Farta","ascii":"Baia Farta","country":"AO","lat":-12.60417,"lon":13.19667,"timezone":"Africa/Luanda"},{"name":"Andulo","ascii":"Andulo","country":"AO","lat":-11.48676,"lon":16.69663,"timezone":"Africa/Luanda"},{"name":"Cambundi","ascii":"Cambundi","country":"AO","lat":-7.46856,"lon":17.03769,"timezone":"Africa/Luanda"},{"name":"Kikolo","ascii":"Kikolo","country":"AO","lat":-8.7815,"lon":13.33384,"timezone":"Africa/Luanda"},{"name":"Cafunfo","ascii":"Cafunfo","country":"AO","lat":-8.7672,"lon":17.99572,"timezone":"Africa/Luanda"},{"name":"Santa Clara","ascii":"Santa Clara","country":"AO","lat":-10.19156,"lon":15.43408,"timezone":"Africa/Luanda"},{"name":"Quissecula","ascii":"Quissecula","country":"AO","lat":-11.39223,"lon":15.09201,"timezone":"Africa/Luanda"},{"name":"Cambundi","ascii":"Cambundi","country":"AO","lat":-10.89481,"lon":17.76402,"timezone":"Africa/Luanda"},{"name":"Mulenvos","ascii":"Mulenvos","country":"AO","lat":-8.86695,"lon":13.3344,"timezone":"Africa/Luanda"},{"name":"Kilamba","ascii":"Kilamba","country":"AO","lat":-8.84861,"lon":13.275,"timezone":"Africa/Luanda"},{"name":"Ingombota","ascii":"Ingombota","country":"AO","lat":-8.81806,"lon":13.22889,"timezone":"Africa/Luanda"},{"name":"Nova Vida","ascii":"Nova Vida","country":"AO","lat":-8.90552,"lon":13.22213,"timezone":"Africa/Luanda"},{"name":"Zango","ascii":"Zango","country":"AO","lat":-9.01212,"lon":13.38437,"timezone":"Africa/Luanda"},{"name":"Vila Flor","ascii":"Vila Flor","country":"AO","lat":-8.98007,"lon":13.30781,"timezone":"Africa/Luanda"},{"name":"Rangel","ascii":"Rangel","country":"AO","lat":-8.82644,"lon":13.26285,"timezone":"Africa/Luanda"},{"name":"Samba","ascii":"Samba","country":"AO","lat":-8.88001,"lon":13.19617,"timezone":"Africa/Luanda"},{"name":"Sambizanga","ascii":"Sambizanga","country":"AO","lat":-8.78883,"lon":13.27506,"timezone":"Africa/Luanda"},{"name":"Navegantes","ascii":"Navegantes","country":"AO","lat":-12.58997,"lon":13.39123,"timezone":"Africa/Luanda"},{"name":"Kima Kieza","ascii":"Kima Kieza","country":"AO","lat":-8.83411,"lon":13.29517,"timezone":"Africa/Luanda"},{"name":"Panguíla","ascii":"Panguila","country":"AO","lat":-8.69335,"lon":13.44914,"timezone":"Africa/Luanda"},{"name":"Ramiros","ascii":"Ramiros","country":"AO","lat":-9.06259,"lon":13.0456,"timezone":"Africa/Luanda"},{"name":"Hoji ya Henda","ascii":"Hoji ya Henda","country":"AO","lat":-8.80523,"lon":13.2897,"timezone":"Africa/Luanda"},{"name":"Zárate","ascii":"Zarate","country":"AR","lat":-34.09584,"lon":-59.02423,"timezone":"America/Argentina/Buenos_Aires"},{"name":"Colonia Wanda","ascii":"Colonia Wanda","country":"AR","lat":-25.97337,"lon":-54.56304,"timezone":"America/Argentina/Cordoba"},{"name":"Villa Ortúzar","ascii":"Villa Ortuzar","country":"AR","lat":-34.57973,"lon":-58.46829,"timezone":"America/Argentina/Buenos_Aires"},{"name":"Villa Ocampo","ascii":"Villa Ocampo","country":"AR","lat":-28.48726,"lon":-59.35421,"timezone":"America/Argentina/Cordoba"},{"name":"Villa Lugano","ascii":"Villa Lugano","country":"AR","lat":-34.67907,"lon":-58.47263,"timezone":"America/Argentina/Buenos_Aires"},{"name":"Villaguay","ascii":"Villaguay","country":"AR","lat":-31.86767,"lon":-59.02701,"timezone":"America/Argentina/Cordoba"},{"name":"Villa Gesell","ascii":"Villa Gesell","country":"AR","lat":-37.26394,"lon":-56.97304,"timezone":"America/Argentina/Buenos_Aires"},{"name":"Villa de Mayo","ascii":"Villa de Mayo","country":"AR","lat":-34.5108,"lon":-58.68059,"timezone":"America/Argentina/Buenos_Aires"},{"name":"Tristán Suárez","ascii":"Tristan Suarez","country":"AR","lat":-34.88982,"lon":-58.56761,"timezone":"America/Argentina/Buenos_Aires"},{"name":"Tortuguitas","ascii":"Tortuguitas","country":"AR","lat":-34.47513,"lon":-58.75367,"timezone":"America/Argentina/Buenos_Aires"},{"name":"Tigre","ascii":"Tigre","country":"AR","lat":-34.42603,"lon":-58.57962,"timezone":"America/Argentina/Buenos_Aires"},{"name":"Tandil","ascii":"Tandil","country":"AR","lat":-37.3287,"lon":-59.1369,"timezone":"America/Argentina/Buenos_Aires"},{"name":"San Vicente","ascii":"San Vicente","country":"AR","lat":-26.61667,"lon":-54.13333,"timezone":"America/Argentina/Cordoba"},{"name":"Santo Tomé","ascii":"Santo Tome","country":"AR","lat":-28.55104,"lon":-56.04125,"timezone":"America/Argentina/Cordoba"},{"name":"Santos Lugares","ascii":"Santos Lugares","country":"AR","lat":-34.60306,"lon":-58.54074,"timezone":"America/Argentina/Buenos_Aires"},{"name":"Santa Teresita","ascii":"Santa Teresita","country":"AR","lat":-36.54059,"lon":-56.69294,"timezone":"America/Argentina/Buenos_Aires"},{"name":"Santa Elena","ascii":"Santa Elena","country":"AR","lat":-30.94432,"lon":-59.78832,"timezone":"America/Argentina/Cordoba"},{"name":"San Pedro","ascii":"San Pedro","country":"AR","lat":-33.67918,"lon":-59.66633,"timezone":"America/Argentina/Buenos_Aires"},{"name":"San Pedro","ascii":"San Pedro","country":"AR","lat":-26.6218,"lon":-54.10902,"timezone":"America/Argentina/Cordoba"},{"name":"San Luis del Palmar","ascii":"San Luis del Palmar","country":"AR","lat":-27.50766,"lon":-58.55625,"timezone":"America/Argentina/Cordoba"},{"name":"San Lorenzo","ascii":"San Lorenzo","country":"AR","lat":-28.13442,"lon":-58.76685,"timezone":"America/Argentina/Cordoba"},{"name":"San Justo","ascii":"San Justo","country":"AR","lat":-34.68107,"lon":-58.56379,"timezone":"America/Argentina/Buenos_Aires"},{"name":"San Javier","ascii":"San Javier","country":"AR","lat":-30.58072,"lon":-59.92962,"timezone":"America/Argentina/Cordoba"},{"name":"San Isidro","ascii":"San Isidro","country":"AR","lat":-34.46971,"lon":-58.52111,"timezone":"America/Argentina/Buenos_Aires"},{"name":"San Antonio de Padua","ascii":"San Antonio de Padua","country":"AR","lat":-34.66267,"lon":-58.69819,"timezone":"America/Argentina/Buenos_Aires"},{"name":"San Antonio de Areco","ascii":"San Antonio de Areco","country":"AR","lat":-34.25083,"lon":-59.46944,"timezone":"America/Argentina/Buenos_Aires"},{"name":"Saladillo","ascii":"Saladillo","country":"AR","lat":-35.63884,"lon":-59.77938,"timezone":"America/Argentina/Buenos_Aires"},{"name":"Saladas","ascii":"Saladas","country":"AR","lat":-28.25504,"lon":-58.62386,"timezone":"America/Argentina/Cordoba"},{"name":"Retiro","ascii":"Retiro","country":"AR","lat":-34.58333,"lon":-58.38333,"timezone":"America/Argentina/Buenos_Aires"},{"name":"Resistencia","ascii":"Resistencia","country":"AR","lat":-27.46363,"lon":-58.98665,"timezone":"America/Argentina/Cordoba"},{"name":"Reconquista","ascii":"Reconquista","country":"AR","lat":-29.15,"lon":-59.65,"timezone":"America/Argentina/Cordoba"},{"name":"Quilmes","ascii":"Quilmes","country":"AR","lat":-34.72065,"lon":-58.25454,"timezone":"America/Argentina/Buenos_Aires"},{"name":"Puerto Rico","ascii":"Puerto Rico","country":"AR","lat":-26.8089,"lon":-55.02147,"timezone":"America/Argentina/Cordoba"},{"name":"Puerto Iguazú","ascii":"Puerto Iguazu","country":"AR","lat":-25.59912,"lon":-54.57355,"timezone":"America/Argentina/Cordoba"},{"name":"Puerto Esperanza","ascii":"Puerto Esperanza","country":"AR","lat":-26.02267,"lon":-54.61356,"timezone":"America/Argentina/Cordoba"},{"name":"Puerto Eldorado","ascii":"Puerto Eldorado","country":"AR","lat":-26.40843,"lon":-54.69463,"timezone":"America/Argentina/Cordoba"},{"name":"Posadas","ascii":"Posadas","country":"AR","lat":-27.39184,"lon":-55.92379,"timezone":"America/Argentina/Cordoba"},{"name":"Pontevedra","ascii":"Pontevedra","country":"AR","lat":-34.74947,"lon":-58.70158,"timezone":"America/Argentina/Buenos_Aires"},{"name":"Pirané","ascii":"Pirane","country":"AR","lat":-25.73271,"lon":-59.10989,"timezone":"America/Argentina/Cordoba"},{"name":"Pinamar","ascii":"Pinamar","country":"AR","lat":-37.11108,"lon":-56.86523,"timezone":"America/Argentina/Buenos_Aires"},{"name":"Pilar","ascii":"Pilar","country":"AR","lat":-34.45867,"lon":-58.91398,"timezone":"America/Argentina/Buenos_Aires"},{"name":"Paso de los Libres","ascii":"Paso de los Libres","country":"AR","lat":-29.71251,"lon":-57.08771,"timezone":"America/Argentina/Cordoba"},{"name":"Oberá","ascii":"Obera","country":"AR","lat":-27.48683,"lon":-55.11994,"timezone":"America/Argentina/Cordoba"},{"name":"Nogoyá","ascii":"Nogoya","country":"AR","lat":-32.39375,"lon":-59.78955,"timezone":"America/Argentina/Cordoba"},{"name":"Necochea","ascii":"Necochea","country":"AR","lat":-38.5545,"lon":-58.73961,"timezone":"America/Argentina/Buenos_Aires"},{"name":"Muñiz","ascii":"Muniz","country":"AR","lat":-34.55622,"lon":-58.70739,"timezone":"America/Argentina/Buenos_Aires"},{"name":"Morón","ascii":"Moron","country":"AR","lat":-34.65118,"lon":-58.62205,"timezone":"America/Argentina/Buenos_Aires"},{"name":"Monte Caseros","ascii":"Monte Caseros","country":"AR","lat":-30.2518,"lon":-57.63537,"timezone":"America/Argentina/Cordoba"},{"name":"Montecarlo","ascii":"Montecarlo","country":"AR","lat":-26.56849,"lon":-54.7579,"timezone":"America/Argentina/Cordoba"},{"name":"Merlo","ascii":"Merlo","country":"AR","lat":-34.66536,"lon":-58.72744,"timezone":"America/Argentina/Buenos_Aires"},{"name":"Mercedes","ascii":"Mercedes","country":"AR","lat":-34.65072,"lon":-59.43143,"timezone":"America/Argentina/Buenos_Aires"},{"name":"Mercedes","ascii":"Mercedes","country":"AR","lat":-29.18416,"lon":-58.07519,"timezone":"America/Argentina/Cordoba"},{"name":"Haedo","ascii":"Haedo","country":"AR","lat":-34.64239,"lon":-58.59212,"timezone":"America/Argentina/Buenos_Aires"},{"name":"Mar del Plata","ascii":"Mar del Plata","country":"AR","lat":-38.00042,"lon":-57.5562,"timezone":"America/Argentina/Buenos_Aires"},{"name":"Mar de Ajó","ascii":"Mar de Ajo","country":"AR","lat":-36.72881,"lon":-56.68265,"timezone":"America/Argentina/Buenos_Aires"},{"name":"Luján","ascii":"Lujan","country":"AR","lat":-34.5664,"lon":-59.11478,"timezone":"America/Argentina/Buenos_Aires"},{"name":"Los Polvorines","ascii":"Los Polvorines","country":"AR","lat":-34.50316,"lon":-58.70596,"timezone":"America/Argentina/Buenos_Aires"},{"name":"Lomas de Zamora","ascii":"Lomas de Zamora","country":"AR","lat":-34.7574,"lon":-58.40279,"timezone":"America/Argentina/Buenos_Aires"},{"name":"La Plata","ascii":"La Plata","country":"AR","lat":-34.92126,"lon":-57.95442,"timezone":"America/Argentina/Buenos_Aires"},{"name":"La Paz","ascii":"La Paz","country":"AR","lat":-30.74179,"lon":-59.64517,"timezone":"America/Argentina/Cordoba"},{"name":"Jardín América","ascii":"Jardin America","country":"AR","lat":-27.04346,"lon":-55.22698,"timezone":"America/Argentina/Cordoba"},{"name":"Ituzaingó","ascii":"Ituzaingo","country":"AR","lat":-27.58504,"lon":-56.68707,"timezone":"America/Argentina/Cordoba"},{"name":"Hurlingham","ascii":"Hurlingham","country":"AR","lat":-34.5904,"lon":-58.62904,"timezone":"America/Argentina/Buenos_Aires"},{"name":"Gualeguaychú","ascii":"Gualeguaychu","country":"AR","lat":-33.00777,"lon":-58.51836,"timezone":"America/Argentina/Cordoba"},{"name":"Gualeguay","ascii":"Gualeguay","country":"AR","lat":-33.14091,"lon":-59.31257,"timezone":"America/Argentina/Cordoba"},{"name":"Goya","ascii":"Goya","country":"AR","lat":-29.13995,"lon":-59.26343,"timezone":"America/Argentina/Cordoba"},{"name":"Gobernador Virasora","ascii":"Gobernador Virasora","country":"AR","lat":-28.05,"lon":-56.03333,"timezone":"America/Argentina/Cordoba"},{"name":"General Pacheco","ascii":"General Pacheco","country":"AR","lat":-34.45256,"lon":-58.64312,"timezone":"America/Argentina/Buenos_Aires"},{"name":"General Juan Madariaga","ascii":"General Juan Madariaga","country":"AR","lat":-37.00196,"lon":-57.13584,"timezone":"America/Argentina/Buenos_Aires"},{"name":"General José de San Martín","ascii":"General Jose de San Martin","country":"AR","lat":-26.53643,"lon":-59.34138,"timezone":"America/Argentina/Cordoba"},{"name":"Garupá","ascii":"Garupa","country":"AR","lat":-27.48315,"lon":-55.82924,"timezone":"America/Argentina/Cordoba"},{"name":"Formosa","ascii":"Formosa","country":"AR","lat":-26.18489,"lon":-58.17313,"timezone":"America/Argentina/Cordoba"},{"name":"Fontana","ascii":"Fontana","country":"AR","lat":-27.42039,"lon":-59.03731,"timezone":"America/Argentina/Cordoba"},{"name":"Federal","ascii":"Federal","country":"AR","lat":-30.95619,"lon":-58.7797,"timezone":"America/Argentina/Cordoba"},{"name":"Ezeiza","ascii":"Ezeiza","country":"AR","lat":-34.8544,"lon":-58.52474,"timezone":"America/Argentina/Buenos_Aires"},{"name":"Esquina","ascii":"Esquina","country":"AR","lat":-30.01476,"lon":-59.5289,"timezone":"America/Argentina/Cordoba"},{"name":"El Soberbio","ascii":"El Soberbio","country":"AR","lat":-27.29662,"lon":-54.19811,"timezone":"America/Argentina/Cordoba"},{"name":"El Palomar","ascii":"El Palomar","country":"AR","lat":-34.61771,"lon":-58.60153,"timezone":"America/Argentina/Buenos_Aires"},{"name":"Don Torcuato","ascii":"Don Torcuato","country":"AR","lat":-34.49459,"lon":-58.62729,"timezone":"America/Argentina/Buenos_Aires"},{"name":"Dolores","ascii":"Dolores","country":"AR","lat":-36.31539,"lon":-57.67546,"timezone":"America/Argentina/Buenos_Aires"},{"name":"Curuzú Cuatiá","ascii":"Curuzu Cuatia","country":"AR","lat":-29.79145,"lon":-58.0499,"timezone":"America/Argentina/Cordoba"},{"name":"Corrientes","ascii":"Corrientes","country":"AR","lat":-27.46784,"lon":-58.8344,"timezone":"America/Argentina/Cordoba"},{"name":"Concordia","ascii":"Concordia","country":"AR","lat":-31.39195,"lon":-58.01706,"timezone":"America/Argentina/Cordoba"},{"name":"Concepción del Uruguay","ascii":"Concepcion del Uruguay","country":"AR","lat":-32.48463,"lon":-58.23217,"timezone":"America/Argentina/Cordoba"},{"name":"Colón","ascii":"Colon","country":"AR","lat":-32.22312,"lon":-58.14426,"timezone":"America/Argentina/Cordoba"},{"name":"Colegiales","ascii":"Colegiales","country":"AR","lat":-34.57365,"lon":-58.44924,"timezone":"America/Argentina/Buenos_Aires"},{"name":"Chascomús","ascii":"Chascomus","country":"AR","lat":-35.57681,"lon":-58.01215,"timezone":"America/Argentina/Buenos_Aires"},{"name":"Chajarí","ascii":"Chajari","country":"AR","lat":-30.75482,"lon":-57.98196,"timezone":"America/Argentina/Cordoba"},{"name":"Castelar","ascii":"Castelar","country":"AR","lat":-34.65142,"lon":-58.64074,"timezone":"America/Argentina/Buenos_Aires"},{"name":"Campana","ascii":"Campana","country":"AR","lat":-34.16327,"lon":-58.95919,"timezone":"America/Argentina/Buenos_Aires"},{"name":"Buenos Aires","ascii":"Buenos Aires","country":"AR","lat":-34.61315,"lon":-58.37723,"timezone":"America/Argentina/Buenos_Aires"},{"name":"Boedo","ascii":"Boedo","country":"AR","lat":-34.63333,"lon":-58.41667,"timezone":"America/Argentina/Buenos_Aires"},{"name":"Berazategui","ascii":"Berazategui","country":"AR","lat":-34.76531,"lon":-58.21278,"timezone":"America/Argentina/Buenos_Aires"},{"name":"Bella Vista","ascii":"Bella Vista","country":"AR","lat":-34.5651,"lon":-58.69034,"timezone":"America/Argentina/Buenos_Aires"},{"name":"Belgrano","ascii":"Belgrano","country":"AR","lat":-34.5627,"lon":-58.45829,"timezone":"America/Argentina/Buenos_Aires"},{"name":"Barranqueras","ascii":"Barranqueras","country":"AR","lat":-27.48132,"lon":-58.93925,"timezone":"America/Argentina/Cordoba"},{"name":"Barracas","ascii":"Barracas","country":"AR","lat":-34.64966,"lon":-58.38341,"timezone":"America/Argentina/Buenos_Aires"},{"name":"Balcarce","ascii":"Balcarce","country":"AR","lat":-37.84638,"lon":-58.25549,"timezone":"America/Argentina/Buenos_Aires"},{"name":"Azul","ascii":"Azul","country":"AR","lat":-36.77803,"lon":-59.85848,"timezone":"America/Argentina/Buenos_Aires"},{"name":"Ayacucho","ascii":"Ayacucho","country":"AR","lat":-37.15276,"lon":-58.48838,"timezone":"America/Argentina/Buenos_Aires"},{"name":"Avellaneda","ascii":"Avellaneda","country":"AR","lat":-29.11761,"lon":-59.65834,"timezone":"America/Argentina/Buenos_Aires"},{"name":"Aristóbulo del Valle","ascii":"Aristobulo del Valle","country":"AR","lat":-27.09571,"lon":-54.89344,"timezone":"America/Argentina/Cordoba"},{"name":"Apóstoles","ascii":"Apostoles","country":"AR","lat":-27.91421,"lon":-55.75355,"timezone":"America/Argentina/Cordoba"},{"name":"Zapala","ascii":"Zapala","country":"AR","lat":-38.90056,"lon":-70.06674,"timezone":"America/Argentina/Salta"},{"name":"Yerba Buena","ascii":"Yerba Buena","country":"AR","lat":-26.81298,"lon":-65.29543,"timezone":"America/Argentina/Tucuman"},{"name":"Villa Regina","ascii":"Villa Regina","country":"AR","lat":-39.09631,"lon":-67.08374,"timezone":"America/Argentina/Salta"},{"name":"Villa Paula de Sarmiento","ascii":"Villa Paula de Sarmiento","country":"AR","lat":-31.4933,"lon":-68.53838,"timezone":"America/Argentina/San_Juan"},{"name":"Villa Nueva","ascii":"Villa Nueva","country":"AR","lat":-32.43289,"lon":-63.24811,"timezone":"America/Argentina/Cordoba"},{"name":"Villa María","ascii":"Villa Maria","country":"AR","lat":-32.40751,"lon":-63.24016,"timezone":"America/Argentina/Cordoba"},{"name":"Villa Dolores","ascii":"Villa Dolores","country":"AR","lat":-31.94504,"lon":-65.19025,"timezone":"America/Argentina/Cordoba"},{"name":"Villa Constitución","ascii":"Villa Constitucion","country":"AR","lat":-33.22795,"lon":-60.32994,"timezone":"America/Argentina/Cordoba"},{"name":"Villa Carlos Paz","ascii":"Villa Carlos Paz","country":"AR","lat":-31.4183,"lon":-64.49008,"timezone":"America/Argentina/Cordoba"},{"name":"Villa Ángela","ascii":"Villa Angela","country":"AR","lat":-27.57679,"lon":-60.71114,"timezone":"America/Argentina/Cordoba"},{"name":"Villa Allende","ascii":"Villa Allende","country":"AR","lat":-31.29368,"lon":-64.2977,"timezone":"America/Argentina/Cordoba"},{"name":"Viedma","ascii":"Viedma","country":"AR","lat":-40.81519,"lon":-63.0004,"timezone":"America/Argentina/Salta"},{"name":"Victoria","ascii":"Victoria","country":"AR","lat":-32.61841,"lon":-60.15478,"timezone":"America/Argentina/Cordoba"},{"name":"Vera","ascii":"Vera","country":"AR","lat":-29.45986,"lon":-60.21315,"timezone":"America/Argentina/Cordoba"},{"name":"Venado Tuerto","ascii":"Venado Tuerto","country":"AR","lat":-33.74585,"lon":-61.96711,"timezone":"America/Argentina/Cordoba"},{"name":"Veinticinco de Mayo","ascii":"Veinticinco de Mayo","country":"AR","lat":-35.43247,"lon":-60.17156,"timezone":"America/Argentina/Buenos_Aires"},{"name":"Ushuaia","ascii":"Ushuaia","country":"AR","lat":-54.81084,"lon":-68.31591,"timezone":"America/Argentina/Ushuaia"},{"name":"Unquillo","ascii":"Unquillo","country":"AR","lat":-31.23717,"lon":-64.31176,"timezone":"America/Argentina/Cordoba"},{"name":"Tres Isletas","ascii":"Tres Isletas","country":"AR","lat":-26.34067,"lon":-60.43207,"timezone":"America/Argentina/Cordoba"},{"name":"Tres Arroyos","ascii":"Tres Arroyos","country":"AR","lat":-38.37694,"lon":-60.27563,"timezone":"America/Argentina/Buenos_Aires"},{"name":"Trenque Lauquen","ascii":"Trenque Lauquen","country":"AR","lat":-35.97334,"lon":-62.73275,"timezone":"America/Argentina/Buenos_Aires"},{"name":"Trelew","ascii":"Trelew","country":"AR","lat":-43.24895,"lon":-65.30505,"timezone":"America/Argentina/Catamarca"},{"name":"Termas de Río Hondo","ascii":"Termas de Rio Hondo","country":"AR","lat":-27.49362,"lon":-64.85972,"timezone":"America/Argentina/Cordoba"},{"name":"Tartagal","ascii":"Tartagal","country":"AR","lat":-22.51682,"lon":-63.8056,"timezone":"America/Argentina/Salta"},{"name":"Tafí Viejo","ascii":"Tafi Viejo","country":"AR","lat":-26.7333,"lon":-65.26146,"timezone":"America/Argentina/Tucuman"},{"name":"Sunchales","ascii":"Sunchales","country":"AR","lat":-30.94478,"lon":-61.5597,"timezone":"America/Argentina/Cordoba"},{"name":"Santo Tomé","ascii":"Santo Tome","country":"AR","lat":-31.66274,"lon":-60.7653,"timezone":"America/Argentina/Cordoba"},{"name":"Santiago del Estero","ascii":"Santiago del Estero","country":"AR","lat":-27.80047,"lon":-64.26285,"timezone":"America/Argentina/Cordoba"},{"name":"Santa Rosa","ascii":"Santa Rosa","country":"AR","lat":-36.61617,"lon":-64.28991,"timezone":"America/Argentina/Salta"},{"name":"Santa Lucía","ascii":"Santa Lucia","country":"AR","lat":-31.54055,"lon":-68.49794,"timezone":"America/Argentina/San_Juan"},{"name":"Santa Fe","ascii":"Santa Fe","country":"AR","lat":-31.64881,"lon":-60.70868,"timezone":"America/Argentina/Cordoba"},{"name":"San Salvador de Jujuy","ascii":"San Salvador de Jujuy","country":"AR","lat":-24.1928,"lon":-65.29342,"timezone":"America/Argentina/Jujuy"},{"name":"San Ramón de la Nueva Orán","ascii":"San Ramon de la Nueva Oran","country":"AR","lat":-23.13705,"lon":-64.32426,"timezone":"America/Argentina/Salta"},{"name":"San Rafael","ascii":"San Rafael","country":"AR","lat":-34.61531,"lon":-68.33238,"timezone":"America/Argentina/Mendoza"},{"name":"San Pedro de Jujuy","ascii":"San Pedro de Jujuy","country":"AR","lat":-24.23127,"lon":-64.86614,"timezone":"America/Argentina/Jujuy"},{"name":"San Nicolás de los Arroyos","ascii":"San Nicolas de los Arroyos","country":"AR","lat":-33.33425,"lon":-60.2108,"timezone":"America/Argentina/Buenos_Aires"},{"name":"San Miguel de Tucumán","ascii":"San Miguel de Tucuman","country":"AR","lat":-26.81601,"lon":-65.21051,"timezone":"America/Argentina/Tucuman"},{"name":"San Martín de los Andes","ascii":"San Martin de los Andes","country":"AR","lat":-40.15789,"lon":-71.35337,"timezone":"America/Argentina/Salta"},{"name":"San Martín","ascii":"San Martin","country":"AR","lat":-33.08338,"lon":-68.47312,"timezone":"America/Argentina/Mendoza"},{"name":"San Luis","ascii":"San Luis","country":"AR","lat":-33.2914,"lon":-66.32467,"timezone":"America/Argentina/San_Luis"},{"name":"San Justo","ascii":"San Justo","country":"AR","lat":-30.78991,"lon":-60.59276,"timezone":"America/Argentina/Cordoba"},{"name":"San Juan","ascii":"San Juan","country":"AR","lat":-31.53726,"lon":-68.52568,"timezone":"America/Argentina/San_Juan"},{"name":"San José de Jáchal","ascii":"San Jose de Jachal","country":"AR","lat":-30.24162,"lon":-68.74662,"timezone":"America/Argentina/San_Juan"},{"name":"San Jorge","ascii":"San Jorge","country":"AR","lat":-31.89706,"lon":-61.85993,"timezone":"America/Argentina/Cordoba"},{"name":"San Francisco","ascii":"San Francisco","country":"AR","lat":-31.42497,"lon":-62.08404,"timezone":"America/Argentina/Cordoba"},{"name":"Catamarca","ascii":"Catamarca","country":"AR","lat":-28.46957,"lon":-65.78524,"timezone":"America/Argentina/Catamarca"},{"name":"San Carlos de Bolívar","ascii":"San Carlos de Bolivar","country":"AR","lat":-36.23071,"lon":-61.1157,"timezone":"America/Argentina/Buenos_Aires"},{"name":"San Antonio Oeste","ascii":"San Antonio Oeste","country":"AR","lat":-40.73193,"lon":-64.94769,"timezone":"America/Argentina/Salta"},{"name":"Salto","ascii":"Salto","country":"AR","lat":-34.29175,"lon":-60.2545,"timezone":"America/Argentina/Buenos_Aires"},{"name":"Salta","ascii":"Salta","country":"AR","lat":-24.80645,"lon":-65.41999,"timezone":"America/Argentina/Salta"},{"name":"Rufino","ascii":"Rufino","country":"AR","lat":-34.26237,"lon":-62.71128,"timezone":"America/Argentina/Cordoba"},{"name":"Rosario","ascii":"Rosario","country":"AR","lat":-32.94682,"lon":-60.63932,"timezone":"America/Argentina/Cordoba"},{"name":"Río Tercero","ascii":"Rio Tercero","country":"AR","lat":-32.17675,"lon":-64.11295,"timezone":"America/Argentina/Cordoba"},{"name":"Río Segundo","ascii":"Rio Segundo","country":"AR","lat":-31.6501,"lon":-63.91165,"timezone":"America/Argentina/Cordoba"},{"name":"Río Grande","ascii":"Rio Grande","country":"AR","lat":-53.78773,"lon":-67.70975,"timezone":"America/Argentina/Ushuaia"},{"name":"Río Gallegos","ascii":"Rio Gallegos","country":"AR","lat":-51.6253,"lon":-69.25229,"timezone":"America/Argentina/Rio_Gallegos"},{"name":"Río Cuarto","ascii":"Rio Cuarto","country":"AR","lat":-33.13044,"lon":-64.35272,"timezone":"America/Argentina/Cordoba"},{"name":"Río Colorado","ascii":"Rio Colorado","country":"AR","lat":-38.99081,"lon":-64.09574,"timezone":"America/Argentina/Salta"},{"name":"Río Ceballos","ascii":"Rio Ceballos","country":"AR","lat":-31.1697,"lon":-64.3175,"timezone":"America/Argentina/Cordoba"},{"name":"Rawson","ascii":"Rawson","country":"AR","lat":-43.30031,"lon":-65.10564,"timezone":"America/Argentina/Catamarca"},{"name":"Rafaela","ascii":"Rafaela","country":"AR","lat":-31.25285,"lon":-61.49078,"timezone":"America/Argentina/Cordoba"},{"name":"Quitilipi","ascii":"Quitilipi","country":"AR","lat":-26.8708,"lon":-60.21537,"timezone":"America/Argentina/Cordoba"},{"name":"Punta Alta","ascii":"Punta Alta","country":"AR","lat":-38.8805,"lon":-62.07503,"timezone":"America/Argentina/Buenos_Aires"},{"name":"Puerto Madryn","ascii":"Puerto Madryn","country":"AR","lat":-42.76848,"lon":-65.03827,"timezone":"America/Argentina/Catamarca"},{"name":"Profesor Salvador Mazza","ascii":"Profesor Salvador Mazza","country":"AR","lat":-22.04897,"lon":-63.69075,"timezone":"America/Argentina/Salta"},{"name":"Presidencia Roque Sáenz Peña","ascii":"Presidencia Roque Saenz Pena","country":"AR","lat":-26.79095,"lon":-60.44132,"timezone":"America/Argentina/Cordoba"},{"name":"Pocito","ascii":"Pocito","country":"AR","lat":-31.68333,"lon":-68.58333,"timezone":"America/Argentina/San_Juan"},{"name":"Plottier","ascii":"Plottier","country":"AR","lat":-38.96667,"lon":-68.23333,"timezone":"America/Argentina/Salta"},{"name":"Pergamino","ascii":"Pergamino","country":"AR","lat":-33.89101,"lon":-60.57462,"timezone":"America/Argentina/Buenos_Aires"},{"name":"Pérez","ascii":"Perez","country":"AR","lat":-32.99835,"lon":-60.76791,"timezone":"America/Argentina/Cordoba"},{"name":"Pehuajó","ascii":"Pehuajo","country":"AR","lat":-35.81081,"lon":-61.89897,"timezone":"America/Argentina/Buenos_Aires"},{"name":"Paraná","ascii":"Parana","country":"AR","lat":-31.73271,"lon":-60.52897,"timezone":"America/Argentina/Cordoba"},{"name":"Palpalá","ascii":"Palpala","country":"AR","lat":-24.25798,"lon":-65.21358,"timezone":"America/Argentina/Jujuy"},{"name":"Olavarría","ascii":"Olavarria","country":"AR","lat":-36.89384,"lon":-60.32319,"timezone":"America/Argentina/Buenos_Aires"},{"name":"Nueve de Julio","ascii":"Nueve de Julio","country":"AR","lat":-35.44394,"lon":-60.88463,"timezone":"America/Argentina/Buenos_Aires"},{"name":"Neuquén","ascii":"Neuquen","country":"AR","lat":-38.95078,"lon":-68.0592,"timezone":"America/Argentina/Salta"},{"name":"Morteros","ascii":"Morteros","country":"AR","lat":-30.71066,"lon":-62.00714,"timezone":"America/Argentina/Cordoba"},{"name":"Monteros","ascii":"Monteros","country":"AR","lat":-27.16825,"lon":-65.49892,"timezone":"America/Argentina/Tucuman"},{"name":"Mendoza","ascii":"Mendoza","country":"AR","lat":-32.88946,"lon":-68.84582,"timezone":"America/Argentina/Mendoza"},{"name":"Marcos Juárez","ascii":"Marcos Juarez","country":"AR","lat":-32.6978,"lon":-62.10672,"timezone":"America/Argentina/Cordoba"},{"name":"Machagai","ascii":"Machagai","country":"AR","lat":-26.92617,"lon":-60.04852,"timezone":"America/Argentina/Cordoba"},{"name":"Lincoln","ascii":"Lincoln","country":"AR","lat":-34.86819,"lon":-61.52929,"timezone":"America/Argentina/Buenos_Aires"},{"name":"Libertador General San Martín","ascii":"Libertador General San Martin","country":"AR","lat":-23.81305,"lon":-64.79353,"timezone":"America/Argentina/Jujuy"},{"name":"Las Breñas","ascii":"Las Brenas","country":"AR","lat":-27.08819,"lon":-61.08217,"timezone":"America/Argentina/Cordoba"},{"name":"La Rioja","ascii":"La Rioja","country":"AR","lat":-29.41328,"lon":-66.85637,"timezone":"America/Argentina/La_Rioja"},{"name":"La Falda","ascii":"La Falda","country":"AR","lat":-31.09321,"lon":-64.48448,"timezone":"America/Argentina/Cordoba"},{"name":"La Calera","ascii":"La Calera","country":"AR","lat":-31.34582,"lon":-64.33849,"timezone":"America/Argentina/Cordoba"},{"name":"Laboulaye","ascii":"Laboulaye","country":"AR","lat":-34.12688,"lon":-63.39083,"timezone":"America/Argentina/Cordoba"},{"name":"Junín","ascii":"Junin","country":"AR","lat":-34.59391,"lon":-60.94644,"timezone":"America/Argentina/Buenos_Aires"},{"name":"Joaquín V. González","ascii":"Joaquin V. Gonzalez","country":"AR","lat":-25.11364,"lon":-64.12628,"timezone":"America/Argentina/Salta"},{"name":"Jesús María","ascii":"Jesus Maria","country":"AR","lat":-30.98153,"lon":-64.09424,"timezone":"America/Argentina/Cordoba"},{"name":"Granadero Baigorria","ascii":"Granadero Baigorria","country":"AR","lat":-32.85683,"lon":-60.71754,"timezone":"America/Argentina/Cordoba"},{"name":"Gobernador Gálvez","ascii":"Gobernador Galvez","country":"AR","lat":-33.03016,"lon":-60.64045,"timezone":"America/Argentina/Cordoba"},{"name":"General Villegas","ascii":"General Villegas","country":"AR","lat":-35.03264,"lon":-63.01484,"timezone":"America/Argentina/Buenos_Aires"},{"name":"General Roca","ascii":"General Roca","country":"AR","lat":-39.03333,"lon":-67.58333,"timezone":"America/Argentina/Salta"},{"name":"General Pinedo","ascii":"General Pinedo","country":"AR","lat":-27.32534,"lon":-61.28101,"timezone":"America/Argentina/Cordoba"},{"name":"General Pico","ascii":"General Pico","country":"AR","lat":-35.6593,"lon":-63.75787,"timezone":"America/Argentina/Salta"},{"name":"General Mosconi","ascii":"General Mosconi","country":"AR","lat":-22.59617,"lon":-63.811,"timezone":"America/Argentina/Salta"},{"name":"Gálvez","ascii":"Galvez","country":"AR","lat":-32.02957,"lon":-61.22097,"timezone":"America/Argentina/Cordoba"},{"name":"Firmat","ascii":"Firmat","country":"AR","lat":-33.45937,"lon":-61.4832,"timezone":"America/Argentina/Cordoba"},{"name":"Famaillá","ascii":"Famailla","country":"AR","lat":-27.05452,"lon":-65.40189,"timezone":"America/Argentina/Tucuman"},{"name":"Esquel","ascii":"Esquel","country":"AR","lat":-42.91147,"lon":-71.31947,"timezone":"America/Argentina/Catamarca"},{"name":"Esperanza","ascii":"Esperanza","country":"AR","lat":-31.44957,"lon":-60.93153,"timezone":"America/Argentina/Cordoba"},{"name":"Embarcación","ascii":"Embarcacion","country":"AR","lat":-23.21003,"lon":-64.09965,"timezone":"America/Argentina/Salta"},{"name":"Embalse","ascii":"Embalse","country":"AR","lat":-32.20681,"lon":-64.40064,"timezone":"America/Argentina/Cordoba"},{"name":"El Bolsón","ascii":"El Bolson","country":"AR","lat":-41.96051,"lon":-71.53336,"timezone":"America/Argentina/Salta"},{"name":"Diamante","ascii":"Diamante","country":"AR","lat":-32.0671,"lon":-60.64267,"timezone":"America/Argentina/Cordoba"},{"name":"Deán Funes","ascii":"Dean Funes","country":"AR","lat":-30.42498,"lon":-64.35274,"timezone":"America/Argentina/Cordoba"},{"name":"Cutral-Có","ascii":"Cutral-Co","country":"AR","lat":-38.93424,"lon":-69.23052,"timezone":"America/Argentina/Salta"},{"name":"Cruz del Eje","ascii":"Cruz del Eje","country":"AR","lat":-30.72644,"lon":-64.80387,"timezone":"America/Argentina/Cordoba"},{"name":"Crespo","ascii":"Crespo","country":"AR","lat":-32.03077,"lon":-60.30619,"timezone":"America/Argentina/Cordoba"},{"name":"Cosquín","ascii":"Cosquin","country":"AR","lat":-31.24525,"lon":-64.46574,"timezone":"America/Argentina/Cordoba"},{"name":"Coronel Suárez","ascii":"Coronel Suarez","country":"AR","lat":-37.45859,"lon":-61.93294,"timezone":"America/Argentina/Buenos_Aires"},{"name":"Coronda","ascii":"Coronda","country":"AR","lat":-31.97365,"lon":-60.91935,"timezone":"America/Argentina/Cordoba"},{"name":"Córdoba","ascii":"Cordoba","country":"AR","lat":-31.40648,"lon":-64.18853,"timezone":"America/Argentina/Cordoba"},{"name":"Comodoro Rivadavia","ascii":"Comodoro Rivadavia","country":"AR","lat":-45.86256,"lon":-67.494,"timezone":"America/Argentina/Catamarca"},{"name":"Cipolletti","ascii":"Cipolletti","country":"AR","lat":-38.93392,"lon":-67.99032,"timezone":"America/Argentina/Salta"},{"name":"Cinco Saltos","ascii":"Cinco Saltos","country":"AR","lat":-38.82225,"lon":-68.06293,"timezone":"America/Argentina/Salta"},{"name":"Chivilcoy","ascii":"Chivilcoy","country":"AR","lat":-34.8969,"lon":-60.01909,"timezone":"America/Argentina/Buenos_Aires"},{"name":"Chimbas","ascii":"Chimbas","country":"AR","lat":-31.49313,"lon":-68.53263,"timezone":"America/Argentina/San_Juan"},{"name":"Chilecito","ascii":"Chilecito","country":"AR","lat":-29.16163,"lon":-67.49934,"timezone":"America/Argentina/La_Rioja"},{"name":"Charata","ascii":"Charata","country":"AR","lat":-27.21787,"lon":-61.18738,"timezone":"America/Argentina/Cordoba"},{"name":"Chacabuco","ascii":"Chacabuco","country":"AR","lat":-34.64203,"lon":-60.47124,"timezone":"America/Argentina/Buenos_Aires"},{"name":"Centenario","ascii":"Centenario","country":"AR","lat":-38.82955,"lon":-68.1318,"timezone":"America/Argentina/Salta"},{"name":"Caucete","ascii":"Caucete","country":"AR","lat":-31.6515,"lon":-68.28216,"timezone":"America/Argentina/San_Juan"},{"name":"Catriel","ascii":"Catriel","country":"AR","lat":-37.87552,"lon":-67.79451,"timezone":"America/Argentina/Salta"},{"name":"Juan José Castelli","ascii":"Juan Jose Castelli","country":"AR","lat":-25.9466,"lon":-60.62008,"timezone":"America/Argentina/Cordoba"},{"name":"Casilda","ascii":"Casilda","country":"AR","lat":-33.04459,"lon":-61.16423,"timezone":"America/Argentina/Cordoba"},{"name":"Carmen de Patagones","ascii":"Carmen de Patagones","country":"AR","lat":-40.80255,"lon":-62.98349,"timezone":"America/Argentina/Buenos_Aires"},{"name":"Carcarañá","ascii":"Carcarana","country":"AR","lat":-32.85704,"lon":-61.15114,"timezone":"America/Argentina/Cordoba"},{"name":"Capitán Bermúdez","ascii":"Capitan Bermudez","country":"AR","lat":-32.82262,"lon":-60.71852,"timezone":"America/Argentina/Cordoba"},{"name":"Cañada de Gómez","ascii":"Canada de Gomez","country":"AR","lat":-32.82033,"lon":-61.39513,"timezone":"America/Argentina/Cordoba"},{"name":"Caleta Olivia","ascii":"Caleta Olivia","country":"AR","lat":-46.44785,"lon":-67.52274,"timezone":"America/Argentina/Rio_Gallegos"},{"name":"Bell Ville","ascii":"Bell Ville","country":"AR","lat":-32.63021,"lon":-62.68883,"timezone":"America/Argentina/Cordoba"},{"name":"Bella Vista","ascii":"Bella Vista","country":"AR","lat":-27.03424,"lon":-65.30196,"timezone":"America/Argentina/Tucuman"},{"name":"Bahía Blanca","ascii":"Bahia Blanca","country":"AR","lat":-38.7176,"lon":-62.26545,"timezone":"America/Argentina/Buenos_Aires"},{"name":"Arroyo Seco","ascii":"Arroyo Seco","country":"AR","lat":-33.15365,"lon":-60.51168,"timezone":"America/Argentina/Cordoba"},{"name":"Arroyito","ascii":"Arroyito","country":"AR","lat":-31.41917,"lon":-63.05084,"timezone":"America/Argentina/Cordoba"},{"name":"Arrecifes","ascii":"Arrecifes","country":"AR","lat":-34.06306,"lon":-60.10261,"timezone":"America/Argentina/Buenos_Aires"},{"name":"Añatuya","ascii":"Anatuya","country":"AR","lat":-28.4602,"lon":-62.83354,"timezone":"America/Argentina/Cordoba"},{"name":"Alta Gracia","ascii":"Alta Gracia","country":"AR","lat":-31.64978,"lon":-64.42972,"timezone":"America/Argentina/Cordoba"},{"name":"Allen","ascii":"Allen","country":"AR","lat":-38.97736,"lon":-67.82714,"timezone":"America/Argentina/Salta"},{"name":"Alderetes","ascii":"Alderetes","country":"AR","lat":-26.81787,"lon":-65.14202,"timezone":"America/Argentina/Tucuman"},{"name":"Albardón","ascii":"Albardon","country":"AR","lat":-31.43722,"lon":-68.52556,"timezone":"America/Argentina/San_Juan"},{"name":"Aimogasta","ascii":"Aimogasta","country":"AR","lat":-28.56003,"lon":-66.80737,"timezone":"America/Argentina/La_Rioja"},{"name":"Aguilares","ascii":"Aguilares","country":"AR","lat":-27.4315,"lon":-65.61465,"timezone":"America/Argentina/Tucuman"},{"name":"Balvanera","ascii":"Balvanera","country":"AR","lat":-34.61032,"lon":-58.39766,"timezone":"America/Argentina/Buenos_Aires"},{"name":"Villa Santa Rita","ascii":"Villa Santa Rita","country":"AR","lat":-34.61082,"lon":-58.481,"timezone":"America/Argentina/Buenos_Aires"},{"name":"Villa Mercedes","ascii":"Villa Mercedes","country":"AR","lat":-33.67571,"lon":-65.45783,"timezone":"America/Argentina/San_Luis"},{"name":"San Miguel","ascii":"San Miguel","country":"AR","lat":-34.54335,"lon":-58.71229,"timezone":"America/Argentina/Buenos_Aires"},{"name":"San Carlos de Bariloche","ascii":"San Carlos de Bariloche","country":"AR","lat":-41.14557,"lon":-71.30822,"timezone":"America/Argentina/Salta"},{"name":"Adrogué","ascii":"Adrogue","country":"AR","lat":-34.80041,"lon":-58.38384,"timezone":"America/Argentina/Buenos_Aires"},{"name":"La Unión","ascii":"La Union","country":"AR","lat":-34.87558,"lon":-58.54192,"timezone":"America/Argentina/Buenos_Aires"},{"name":"Ingeniero Pablo Nogués","ascii":"Ingeniero Pablo Nogues","country":"AR","lat":-34.47775,"lon":-58.70652,"timezone":"America/Argentina/Buenos_Aires"},{"name":"Villa Sarmiento","ascii":"Villa Sarmiento","country":"AR","lat":-34.63364,"lon":-58.57047,"timezone":"America/Argentina/Buenos_Aires"},{"name":"José C. Paz","ascii":"Jose C. Paz","country":"AR","lat":-34.51541,"lon":-58.76813,"timezone":"America/Argentina/Buenos_Aires"},{"name":"Pago Pago","ascii":"Pago Pago","country":"AS","lat":-14.27806,"lon":-170.7025,"timezone":"Pacific/Pago_Pago"},{"name":"Döbling","ascii":"Doebling","country":"AT","lat":48.25,"lon":16.33333,"timezone":"Europe/Vienna"},{"name":"Wolfsberg","ascii":"Wolfsberg","country":"AT","lat":46.84056,"lon":14.84417,"timezone":"Europe/Vienna"},{"name":"Wilten","ascii":"Wilten","country":"AT","lat":47.25829,"lon":11.38808,"timezone":"Europe/Vienna"},{"name":"Wiener Neustadt","ascii":"Wiener Neustadt","country":"AT","lat":47.80485,"lon":16.23196,"timezone":"Europe/Vienna"},{"name":"Vienna","ascii":"Vienna","country":"AT","lat":48.20849,"lon":16.37208,"timezone":"Europe/Vienna"},{"name":"Wetzelsdorf","ascii":"Wetzelsdorf","country":"AT","lat":47.05293,"lon":15.39923,"timezone":"Europe/Vienna"},{"name":"Wels","ascii":"Wels","country":"AT","lat":48.16667,"lon":14.03333,"timezone":"Europe/Vienna"},{"name":"Villach","ascii":"Villach","country":"AT","lat":46.61028,"lon":13.85583,"timezone":"Europe/Vienna"},{"name":"Traun","ascii":"Traun","country":"AT","lat":48.22086,"lon":14.23833,"timezone":"Europe/Vienna"},{"name":"Telfs","ascii":"Telfs","country":"AT","lat":47.30707,"lon":11.06817,"timezone":"Europe/Vienna"},{"name":"Straßgang","ascii":"Strassgang","country":"AT","lat":47.03333,"lon":15.4,"timezone":"Europe/Vienna"},{"name":"Stockerau","ascii":"Stockerau","country":"AT","lat":48.38333,"lon":16.21667,"timezone":"Europe/Vienna"},{"name":"Steyr","ascii":"Steyr","country":"AT","lat":48.04274,"lon":14.42127,"timezone":"Europe/Vienna"},{"name":"Simmering","ascii":"Simmering","country":"AT","lat":48.18333,"lon":16.43333,"timezone":"Europe/Vienna"},{"name":"Sankt Pölten","ascii":"Sankt Poelten","country":"AT","lat":48.20762,"lon":15.63725,"timezone":"Europe/Vienna"},{"name":"Sankt Peter","ascii":"Sankt Peter","country":"AT","lat":47.05,"lon":15.46667,"timezone":"Europe/Vienna"},{"name":"Sankt Peter","ascii":"Sankt Peter","country":"AT","lat":46.62978,"lon":14.34016,"timezone":"Europe/Vienna"},{"name":"Sankt Martin","ascii":"Sankt Martin","country":"AT","lat":46.61667,"lon":14.28333,"timezone":"Europe/Vienna"},{"name":"Salzburg","ascii":"Salzburg","country":"AT","lat":47.79941,"lon":13.04399,"timezone":"Europe/Vienna"},{"name":"Saalfelden am Steinernen Meer","ascii":"Saalfelden am Steinernen Meer","country":"AT","lat":47.42681,"lon":12.848,"timezone":"Europe/Vienna"},{"name":"Pradl","ascii":"Pradl","country":"AT","lat":47.26539,"lon":11.4152,"timezone":"Europe/Vienna"},{"name":"Perchtoldsdorf","ascii":"Perchtoldsdorf","country":"AT","lat":48.11935,"lon":16.26607,"timezone":"Europe/Vienna"},{"name":"Ottakring","ascii":"Ottakring","country":"AT","lat":48.21667,"lon":16.3,"timezone":"Europe/Vienna"},{"name":"Mödling","ascii":"Moedling","country":"AT","lat":48.08605,"lon":16.28921,"timezone":"Europe/Vienna"},{"name":"Meidling","ascii":"Meidling","country":"AT","lat":48.16667,"lon":16.33333,"timezone":"Europe/Vienna"},{"name":"Lustenau","ascii":"Lustenau","country":"AT","lat":47.42642,"lon":9.65851,"timezone":"Europe/Vienna"},{"name":"Linz","ascii":"Linz","country":"AT","lat":48.30639,"lon":14.28611,"timezone":"Europe/Vienna"},{"name":"Klosterneuburg","ascii":"Klosterneuburg","country":"AT","lat":48.30521,"lon":16.32522,"timezone":"Europe/Vienna"},{"name":"Klagenfurt am Wörthersee","ascii":"Klagenfurt am Woerthersee","country":"AT","lat":46.62472,"lon":14.30528,"timezone":"Europe/Vienna"},{"name":"Innsbruck","ascii":"Innsbruck","country":"AT","lat":47.26266,"lon":11.39454,"timezone":"Europe/Vienna"},{"name":"Innere Stadt","ascii":"Innere Stadt","country":"AT","lat":48.20906,"lon":16.37135,"timezone":"Europe/Vienna"},{"name":"Penzing","ascii":"Penzing","country":"AT","lat":48.2,"lon":16.26667,"timezone":"Europe/Vienna"},{"name":"Hötting","ascii":"Hoetting","country":"AT","lat":47.26815,"lon":11.36868,"timezone":"Europe/Vienna"},{"name":"Hohenems","ascii":"Hohenems","country":"AT","lat":47.36121,"lon":9.68694,"timezone":"Europe/Vienna"},{"name":"Hietzing","ascii":"Hietzing","country":"AT","lat":48.18623,"lon":16.2965,"timezone":"Europe/Vienna"},{"name":"Hernals","ascii":"Hernals","country":"AT","lat":48.22544,"lon":16.30871,"timezone":"Europe/Vienna"},{"name":"Graz","ascii":"Graz","country":"AT","lat":47.06733,"lon":15.44197,"timezone":"Europe/Vienna"},{"name":"Fünfhaus","ascii":"Fuenfhaus","country":"AT","lat":48.19596,"lon":16.3183,"timezone":"Europe/Vienna"},{"name":"Floridsdorf","ascii":"Floridsdorf","country":"AT","lat":48.25,"lon":16.4,"timezone":"Europe/Vienna"},{"name":"Feldkirch","ascii":"Feldkirch","country":"AT","lat":47.23645,"lon":9.59734,"timezone":"Europe/Vienna"},{"name":"Essling","ascii":"Essling","country":"AT","lat":48.21289,"lon":16.52442,"timezone":"Europe/Vienna"},{"name":"Eggenberg","ascii":"Eggenberg","country":"AT","lat":47.07,"lon":15.39871,"timezone":"Europe/Vienna"},{"name":"Dornbirn","ascii":"Dornbirn","country":"AT","lat":47.41427,"lon":9.74195,"timezone":"Europe/Vienna"},{"name":"Bregenz","ascii":"Bregenz","country":"AT","lat":47.50311,"lon":9.7471,"timezone":"Europe/Vienna"},{"name":"Bludenz","ascii":"Bludenz","country":"AT","lat":47.15476,"lon":9.82255,"timezone":"Europe/Vienna"},{"name":"Baden","ascii":"Baden","country":"AT","lat":48.00543,"lon":16.23264,"timezone":"Europe/Vienna"},{"name":"Aspern","ascii":"Aspern","country":"AT","lat":48.21806,"lon":16.48306,"timezone":"Europe/Vienna"},{"name":"Amstetten","ascii":"Amstetten","country":"AT","lat":48.1229,"lon":14.87206,"timezone":"Europe/Vienna"},{"name":"Favoriten","ascii":"Favoriten","country":"AT","lat":48.16116,"lon":16.38233,"timezone":"Europe/Vienna"},{"name":"Donaustadt","ascii":"Donaustadt","country":"AT","lat":48.2333,"lon":16.46002,"timezone":"Europe/Vienna"},{"name":"Jakomini","ascii":"Jakomini","country":"AT","lat":47.05441,"lon":15.44984,"timezone":"Europe/Vienna"},{"name":"Lend","ascii":"Lend","country":"AT","lat":47.08256,"lon":15.41589,"timezone":"Europe/Vienna"},{"name":"Geidorf","ascii":"Geidorf","country":"AT","lat":47.08393,"lon":15.444,"timezone":"Europe/Vienna"},{"name":"Sankt Leonhard","ascii":"Sankt Leonhard","country":"AT","lat":47.06924,"lon":15.45784,"timezone":"Europe/Vienna"},{"name":"Andritz","ascii":"Andritz","country":"AT","lat":47.11387,"lon":15.42348,"timezone":"Europe/Vienna"},{"name":"Gries","ascii":"Gries","country":"AT","lat":47.06236,"lon":15.42421,"timezone":"Europe/Vienna"},{"name":"Währing","ascii":"Waehring","country":"AT","lat":48.22611,"lon":16.34484,"timezone":"Europe/Vienna"},{"name":"Landstraße","ascii":"Landstrasse","country":"AT","lat":48.2019,"lon":16.38792,"timezone":"Europe/Vienna"},{"name":"Margareten","ascii":"Margareten","country":"AT","lat":48.1855,"lon":16.35373,"timezone":"Europe/Vienna"},{"name":"Mariahilf","ascii":"Mariahilf","country":"AT","lat":48.19571,"lon":16.35215,"timezone":"Europe/Vienna"},{"name":"Neubau","ascii":"Neubau","country":"AT","lat":48.20172,"lon":16.34715,"timezone":"Europe/Vienna"},{"name":"Josefstadt","ascii":"Josefstadt","country":"AT","lat":48.21243,"lon":16.34549,"timezone":"Europe/Vienna"},{"name":"Alsergrund","ascii":"Alsergrund","country":"AT","lat":48.22321,"lon":16.35506,"timezone":"Europe/Vienna"},{"name":"Brigittenau","ascii":"Brigittenau","country":"AT","lat":48.24275,"lon":16.37551,"timezone":"Europe/Vienna"},{"name":"Scarborough","ascii":"Scarborough","country":"AU","lat":-31.89578,"lon":115.76431,"timezone":"Australia/Perth"},{"name":"Rockingham","ascii":"Rockingham","country":"AU","lat":-32.27682,"lon":115.72978,"timezone":"Australia/Perth"},{"name":"Port Hedland","ascii":"Port Hedland","country":"AU","lat":-20.31215,"lon":118.61059,"timezone":"Australia/Perth"},{"name":"Perth","ascii":"Perth","country":"AU","lat":-31.95224,"lon":115.8614,"timezone":"Australia/Perth"},{"name":"Mount Isa","ascii":"Mount Isa","country":"AU","lat":-20.72523,"lon":139.49727,"timezone":"Australia/Brisbane"},{"name":"Mount Barker","ascii":"Mount Barker","country":"AU","lat":-35.06667,"lon":138.86667,"timezone":"Australia/Adelaide"},{"name":"Morphett Vale","ascii":"Morphett Vale","country":"AU","lat":-35.13333,"lon":138.51667,"timezone":"Australia/Adelaide"},{"name":"Mandurah","ascii":"Mandurah","country":"AU","lat":-32.5269,"lon":115.7217,"timezone":"Australia/Perth"},{"name":"Kwinana","ascii":"Kwinana","country":"AU","lat":-32.23013,"lon":115.78128,"timezone":"Australia/Perth"},{"name":"Kalgoorlie","ascii":"Kalgoorlie","country":"AU","lat":-30.74614,"lon":121.4742,"timezone":"Australia/Perth"},{"name":"Gosnells","ascii":"Gosnells","country":"AU","lat":-32.081,"lon":116.0054,"timezone":"Australia/Perth"},{"name":"Geraldton","ascii":"Geraldton","country":"AU","lat":-28.77897,"lon":114.61459,"timezone":"Australia/Perth"},{"name":"Gawler","ascii":"Gawler","country":"AU","lat":-34.60251,"lon":138.74902,"timezone":"Australia/Adelaide"},{"name":"Darwin","ascii":"Darwin","country":"AU","lat":-12.46113,"lon":130.84185,"timezone":"Australia/Darwin"},{"name":"Byford","ascii":"Byford","country":"AU","lat":-32.22099,"lon":116.009,"timezone":"Australia/Perth"},{"name":"Busselton","ascii":"Busselton","country":"AU","lat":-33.65249,"lon":115.3455,"timezone":"Australia/Perth"},{"name":"Bunbury","ascii":"Bunbury","country":"AU","lat":-33.32711,"lon":115.64137,"timezone":"Australia/Perth"},{"name":"Australind","ascii":"Australind","country":"AU","lat":-33.2792,"lon":115.71504,"timezone":"Australia/Perth"},{"name":"Alice Springs","ascii":"Alice Springs","country":"AU","lat":-23.69748,"lon":133.88362,"timezone":"Australia/Darwin"},{"name":"Albany","ascii":"Albany","country":"AU","lat":-35.02692,"lon":117.88369,"timezone":"Australia/Perth"},{"name":"Adelaide","ascii":"Adelaide","country":"AU","lat":-34.92866,"lon":138.59863,"timezone":"Australia/Adelaide"},{"name":"Yarraville","ascii":"Yarraville","country":"AU","lat":-37.81667,"lon":144.9,"timezone":"Australia/Melbourne"},{"name":"Wollert","ascii":"Wollert","country":"AU","lat":-37.58333,"lon":145.03333,"timezone":"Australia/Melbourne"},{"name":"Wodonga","ascii":"Wodonga","country":"AU","lat":-36.12179,"lon":146.88809,"timezone":"Australia/Melbourne"},{"name":"Wheelers Hill","ascii":"Wheelers Hill","country":"AU","lat":-37.9,"lon":145.18333,"timezone":"Australia/Melbourne"},{"name":"Westmead","ascii":"Westmead","country":"AU","lat":-33.80383,"lon":150.98768,"timezone":"Australia/Sydney"},{"name":"Werribee","ascii":"Werribee","country":"AU","lat":-37.9,"lon":144.66667,"timezone":"Australia/Melbourne"},{"name":"Warwick","ascii":"Warwick","country":"AU","lat":-28.21901,"lon":152.03438,"timezone":"Australia/Brisbane"},{"name":"Warrnambool","ascii":"Warrnambool","country":"AU","lat":-38.38176,"lon":142.48799,"timezone":"Australia/Melbourne"},{"name":"Warragul","ascii":"Warragul","country":"AU","lat":-38.15912,"lon":145.93118,"timezone":"Australia/Melbourne"},{"name":"Wantirna South","ascii":"Wantirna South","country":"AU","lat":-37.88333,"lon":145.21667,"timezone":"Australia/Melbourne"},{"name":"Wangaratta","ascii":"Wangaratta","country":"AU","lat":-36.35846,"lon":146.32056,"timezone":"Australia/Melbourne"},{"name":"Wallan","ascii":"Wallan","country":"AU","lat":-37.41625,"lon":144.97859,"timezone":"Australia/Melbourne"},{"name":"Wahroonga","ascii":"Wahroonga","country":"AU","lat":-33.71816,"lon":151.11561,"timezone":"Australia/Sydney"},{"name":"Upper Coomera","ascii":"Upper Coomera","country":"AU","lat":-27.87683,"lon":153.28572,"timezone":"Australia/Brisbane"},{"name":"Tuggeranong Administrative District","ascii":"Tuggeranong Administrative District","country":"AU","lat":-35.41647,"lon":149.06954,"timezone":"Australia/Sydney"},{"name":"Truganina","ascii":"Truganina","country":"AU","lat":-37.81667,"lon":144.75,"timezone":"Australia/Melbourne"},{"name":"Traralgon","ascii":"Traralgon","country":"AU","lat":-38.19528,"lon":146.5415,"timezone":"Australia/Melbourne"},{"name":"Townsville","ascii":"Townsville","country":"AU","lat":-19.26639,"lon":146.80569,"timezone":"Australia/Brisbane"},{"name":"Torquay","ascii":"Torquay","country":"AU","lat":-38.33085,"lon":144.32638,"timezone":"Australia/Melbourne"},{"name":"Toowoomba","ascii":"Toowoomba","country":"AU","lat":-27.56056,"lon":151.95386,"timezone":"Australia/Brisbane"},{"name":"Thornbury","ascii":"Thornbury","country":"AU","lat":-37.75819,"lon":145.00583,"timezone":"Australia/Melbourne"},{"name":"Thomastown","ascii":"Thomastown","country":"AU","lat":-37.68333,"lon":145.01667,"timezone":"Australia/Melbourne"},{"name":"Templestowe","ascii":"Templestowe","country":"AU","lat":-37.75405,"lon":145.14864,"timezone":"Australia/Melbourne"},{"name":"Tarneit","ascii":"Tarneit","country":"AU","lat":-37.83634,"lon":144.65952,"timezone":"Australia/Melbourne"},{"name":"Taree","ascii":"Taree","country":"AU","lat":-31.91099,"lon":152.45387,"timezone":"Australia/Sydney"},{"name":"Tamworth","ascii":"Tamworth","country":"AU","lat":-31.09048,"lon":150.92905,"timezone":"Australia/Sydney"},{"name":"Sydney","ascii":"Sydney","country":"AU","lat":-33.86785,"lon":151.20732,"timezone":"Australia/Sydney"},{"name":"Surry Hills","ascii":"Surry Hills","country":"AU","lat":-33.88374,"lon":151.21282,"timezone":"Australia/Sydney"},{"name":"Surfers Paradise","ascii":"Surfers Paradise","country":"AU","lat":-28.00274,"lon":153.42999,"timezone":"Australia/Brisbane"},{"name":"Sunbury","ascii":"Sunbury","country":"AU","lat":-37.57742,"lon":144.72607,"timezone":"Australia/Melbourne"},{"name":"Strathfield","ascii":"Strathfield","country":"AU","lat":-33.88096,"lon":151.07986,"timezone":"Australia/Sydney"},{"name":"Springvale","ascii":"Springvale","country":"AU","lat":-37.94853,"lon":145.15274,"timezone":"Australia/Melbourne"},{"name":"South Yarra","ascii":"South Yarra","country":"AU","lat":-37.83834,"lon":144.99149,"timezone":"Australia/Melbourne"},{"name":"Southport","ascii":"Southport","country":"AU","lat":-27.96724,"lon":153.39796,"timezone":"Australia/Brisbane"},{"name":"Shepparton","ascii":"Shepparton","country":"AU","lat":-36.38047,"lon":145.39867,"timezone":"Australia/Melbourne"},{"name":"Seven Hills","ascii":"Seven Hills","country":"AU","lat":-33.78333,"lon":150.93333,"timezone":"Australia/Sydney"},{"name":"Seaford","ascii":"Seaford","country":"AU","lat":-38.1,"lon":145.13333,"timezone":"Australia/Melbourne"},{"name":"Saint Kilda","ascii":"Saint Kilda","country":"AU","lat":-37.8676,"lon":144.98099,"timezone":"Australia/Melbourne"},{"name":"Saint Ives","ascii":"Saint Ives","country":"AU","lat":-33.72976,"lon":151.15977,"timezone":"Australia/Sydney"},{"name":"Saint Albans","ascii":"Saint Albans","country":"AU","lat":-37.73333,"lon":144.8,"timezone":"Australia/Melbourne"},{"name":"Ryde","ascii":"Ryde","country":"AU","lat":-33.8188,"lon":151.1062,"timezone":"Australia/Sydney"},{"name":"Rowville","ascii":"Rowville","country":"AU","lat":-37.93333,"lon":145.23333,"timezone":"Australia/Melbourne"},{"name":"Rockhampton","ascii":"Rockhampton","country":"AU","lat":-23.38032,"lon":150.50595,"timezone":"Australia/Brisbane"},{"name":"Rockdale","ascii":"Rockdale","country":"AU","lat":-33.95,"lon":151.13333,"timezone":"Australia/Sydney"},{"name":"Ringwood","ascii":"Ringwood","country":"AU","lat":-37.81667,"lon":145.23333,"timezone":"Australia/Melbourne"},{"name":"Richmond","ascii":"Richmond","country":"AU","lat":-37.81819,"lon":145.00176,"timezone":"Australia/Melbourne"},{"name":"Reservoir","ascii":"Reservoir","country":"AU","lat":-37.71667,"lon":145,"timezone":"Australia/Melbourne"},{"name":"Quakers Hill","ascii":"Quakers Hill","country":"AU","lat":-33.73333,"lon":150.88333,"timezone":"Australia/Sydney"},{"name":"Preston","ascii":"Preston","country":"AU","lat":-37.75,"lon":145.01667,"timezone":"Australia/Melbourne"},{"name":"Port Melbourne","ascii":"Port Melbourne","country":"AU","lat":-37.83961,"lon":144.94228,"timezone":"Australia/Melbourne"},{"name":"Port Macquarie","ascii":"Port Macquarie","country":"AU","lat":-31.43084,"lon":152.90894,"timezone":"Australia/Sydney"},{"name":"Point Cook","ascii":"Point Cook","country":"AU","lat":-37.91482,"lon":144.75088,"timezone":"Australia/Melbourne"},{"name":"Pascoe Vale","ascii":"Pascoe Vale","country":"AU","lat":-37.73333,"lon":144.93333,"timezone":"Australia/Melbourne"},{"name":"Palm Beach","ascii":"Palm Beach","country":"AU","lat":-28.11694,"lon":153.46584,"timezone":"Australia/Brisbane"},{"name":"Pakenham","ascii":"Pakenham","country":"AU","lat":-38.07018,"lon":145.47411,"timezone":"Australia/Melbourne"},{"name":"Orange","ascii":"Orange","country":"AU","lat":-33.28397,"lon":149.10018,"timezone":"Australia/Sydney"},{"name":"Officer","ascii":"Officer","country":"AU","lat":-38.05916,"lon":145.40947,"timezone":"Australia/Melbourne"},{"name":"North Melbourne","ascii":"North Melbourne","country":"AU","lat":-37.79798,"lon":144.94512,"timezone":"Australia/Melbourne"},{"name":"Northcote","ascii":"Northcote","country":"AU","lat":-37.76667,"lon":145,"timezone":"Australia/Melbourne"},{"name":"Noble Park","ascii":"Noble Park","country":"AU","lat":-37.96667,"lon":145.16667,"timezone":"Australia/Melbourne"},{"name":"Newcastle","ascii":"Newcastle","country":"AU","lat":-32.92953,"lon":151.7801,"timezone":"Australia/Sydney"},{"name":"Nerang","ascii":"Nerang","country":"AU","lat":-27.98941,"lon":153.33633,"timezone":"Australia/Brisbane"},{"name":"Narre Warren","ascii":"Narre Warren","country":"AU","lat":-38.03333,"lon":145.3,"timezone":"Australia/Melbourne"},{"name":"Narangba","ascii":"Narangba","country":"AU","lat":-27.20338,"lon":152.95923,"timezone":"Australia/Brisbane"},{"name":"Muswellbrook","ascii":"Muswellbrook","country":"AU","lat":-32.26118,"lon":150.89009,"timezone":"Australia/Sydney"},{"name":"Mulgrave","ascii":"Mulgrave","country":"AU","lat":-37.92845,"lon":145.17708,"timezone":"Australia/Melbourne"},{"name":"Mount Waverley","ascii":"Mount Waverley","country":"AU","lat":-37.87709,"lon":145.12939,"timezone":"Australia/Melbourne"},{"name":"Mount Martha","ascii":"Mount Martha","country":"AU","lat":-38.26667,"lon":145.01667,"timezone":"Australia/Melbourne"},{"name":"Mount Gambier","ascii":"Mount Gambier","country":"AU","lat":-37.8318,"lon":140.77919,"timezone":"Australia/Adelaide"},{"name":"Mount Eliza","ascii":"Mount Eliza","country":"AU","lat":-38.18333,"lon":145.08333,"timezone":"Australia/Melbourne"},{"name":"Mount Druitt","ascii":"Mount Druitt","country":"AU","lat":-33.76667,"lon":150.81667,"timezone":"Australia/Sydney"},{"name":"Mosman","ascii":"Mosman","country":"AU","lat":-33.83902,"lon":151.23956,"timezone":"Australia/Sydney"},{"name":"Mornington","ascii":"Mornington","country":"AU","lat":-38.21792,"lon":145.03876,"timezone":"Australia/Melbourne"},{"name":"Morayfield","ascii":"Morayfield","country":"AU","lat":-27.10876,"lon":152.94907,"timezone":"Australia/Brisbane"},{"name":"South Morang","ascii":"South Morang","country":"AU","lat":-37.65,"lon":145.1,"timezone":"Australia/Melbourne"},{"name":"Mooroolbark","ascii":"Mooroolbark","country":"AU","lat":-37.78247,"lon":145.31682,"timezone":"Australia/Melbourne"},{"name":"Moonee Ponds","ascii":"Moonee Ponds","country":"AU","lat":-37.76667,"lon":144.91667,"timezone":"Australia/Melbourne"},{"name":"Mitcham","ascii":"Mitcham","country":"AU","lat":-37.81667,"lon":145.2,"timezone":"Australia/Melbourne"},{"name":"Miranda","ascii":"Miranda","country":"AU","lat":-34.03857,"lon":151.10005,"timezone":"Australia/Sydney"},{"name":"Mill Park","ascii":"Mill Park","country":"AU","lat":-37.66667,"lon":145.06667,"timezone":"Australia/Melbourne"},{"name":"Mildura","ascii":"Mildura","country":"AU","lat":-34.18551,"lon":142.16251,"timezone":"Australia/Melbourne"},{"name":"Merrylands","ascii":"Merrylands","country":"AU","lat":-33.83333,"lon":150.98333,"timezone":"Australia/Sydney"},{"name":"Mernda","ascii":"Mernda","country":"AU","lat":-37.60075,"lon":145.09555,"timezone":"Australia/Melbourne"},{"name":"Melbourne","ascii":"Melbourne","country":"AU","lat":-37.814,"lon":144.96332,"timezone":"Australia/Melbourne"},{"name":"Mascot","ascii":"Mascot","country":"AU","lat":-33.92598,"lon":151.19347,"timezone":"Australia/Sydney"},{"name":"Maryborough","ascii":"Maryborough","country":"AU","lat":-25.54073,"lon":152.70493,"timezone":"Australia/Brisbane"},{"name":"Marrickville","ascii":"Marrickville","country":"AU","lat":-33.90741,"lon":151.15546,"timezone":"Australia/Sydney"},{"name":"Maroubra","ascii":"Maroubra","country":"AU","lat":-33.95,"lon":151.23333,"timezone":"Australia/Sydney"},{"name":"Manly","ascii":"Manly","country":"AU","lat":-33.79798,"lon":151.28826,"timezone":"Australia/Sydney"},{"name":"Maitland","ascii":"Maitland","country":"AU","lat":-32.73308,"lon":151.5574,"timezone":"Australia/Sydney"},{"name":"Mackay","ascii":"Mackay","country":"AU","lat":-21.15345,"lon":149.16554,"timezone":"Australia/Brisbane"},{"name":"Liverpool","ascii":"Liverpool","country":"AU","lat":-33.91938,"lon":150.92588,"timezone":"Australia/Sydney"},{"name":"Lilydale","ascii":"Lilydale","country":"AU","lat":-37.75,"lon":145.35,"timezone":"Australia/Melbourne"},{"name":"Lidcombe","ascii":"Lidcombe","country":"AU","lat":-33.86436,"lon":151.0397,"timezone":"Australia/Sydney"},{"name":"Launceston","ascii":"Launceston","country":"AU","lat":-41.43876,"lon":147.13467,"timezone":"Australia/Hobart"},{"name":"Lara","ascii":"Lara","country":"AU","lat":-38.02388,"lon":144.40617,"timezone":"Australia/Melbourne"},{"name":"Langwarrin","ascii":"Langwarrin","country":"AU","lat":-38.16667,"lon":145.16667,"timezone":"Australia/Melbourne"},{"name":"Lalor","ascii":"Lalor","country":"AU","lat":-37.66667,"lon":145.01667,"timezone":"Australia/Melbourne"},{"name":"Lakemba","ascii":"Lakemba","country":"AU","lat":-33.91972,"lon":151.07592,"timezone":"Australia/Sydney"},{"name":"Kogarah","ascii":"Kogarah","country":"AU","lat":-33.9681,"lon":151.13564,"timezone":"Australia/Sydney"},{"name":"Keysborough","ascii":"Keysborough","country":"AU","lat":-37.99116,"lon":145.17385,"timezone":"Australia/Melbourne"},{"name":"Kew","ascii":"Kew","country":"AU","lat":-37.80639,"lon":145.03086,"timezone":"Australia/Melbourne"},{"name":"Kensington","ascii":"Kensington","country":"AU","lat":-33.92019,"lon":151.22241,"timezone":"Australia/Sydney"},{"name":"Horsham","ascii":"Horsham","country":"AU","lat":-36.71131,"lon":142.19981,"timezone":"Australia/Melbourne"},{"name":"Hornsby","ascii":"Hornsby","country":"AU","lat":-33.70244,"lon":151.09931,"timezone":"Australia/Sydney"},{"name":"Hobart","ascii":"Hobart","country":"AU","lat":-42.87936,"lon":147.32941,"timezone":"Australia/Hobart"},{"name":"Hawthorn South","ascii":"Hawthorn South","country":"AU","lat":-37.8329,"lon":145.0367,"timezone":"Australia/Melbourne"},{"name":"Hawthorn","ascii":"Hawthorn","country":"AU","lat":-37.81992,"lon":145.0358,"timezone":"Australia/Melbourne"},{"name":"Hampton Park","ascii":"Hampton Park","country":"AU","lat":-38.03333,"lon":145.25,"timezone":"Australia/Melbourne"},{"name":"Gympie","ascii":"Gympie","country":"AU","lat":-26.18979,"lon":152.66499,"timezone":"Australia/Brisbane"},{"name":"Griffith","ascii":"Griffith","country":"AU","lat":-34.28853,"lon":146.05093,"timezone":"Australia/Sydney"},{"name":"Greenvale","ascii":"Greenvale","country":"AU","lat":-37.63333,"lon":144.86667,"timezone":"Australia/Melbourne"},{"name":"Greensborough","ascii":"Greensborough","country":"AU","lat":-37.70462,"lon":145.10302,"timezone":"Australia/Melbourne"},{"name":"Granville","ascii":"Granville","country":"AU","lat":-33.8406,"lon":151.00748,"timezone":"Australia/Sydney"},{"name":"Grafton","ascii":"Grafton","country":"AU","lat":-29.68104,"lon":152.93394,"timezone":"Australia/Sydney"},{"name":"Goulburn","ascii":"Goulburn","country":"AU","lat":-34.75155,"lon":149.72086,"timezone":"Australia/Sydney"},{"name":"Gold Coast","ascii":"Gold Coast","country":"AU","lat":-28.00029,"lon":153.43088,"timezone":"Australia/Brisbane"},{"name":"Glen Waverley","ascii":"Glen Waverley","country":"AU","lat":-37.87811,"lon":145.16476,"timezone":"Australia/Melbourne"},{"name":"Glenroy","ascii":"Glenroy","country":"AU","lat":-37.7,"lon":144.93333,"timezone":"Australia/Melbourne"},{"name":"Glen Iris","ascii":"Glen Iris","country":"AU","lat":-37.86667,"lon":145.06667,"timezone":"Australia/Melbourne"},{"name":"Glenferrie","ascii":"Glenferrie","country":"AU","lat":-37.83333,"lon":145.05,"timezone":"Australia/Melbourne"},{"name":"Gladstone","ascii":"Gladstone","country":"AU","lat":-23.84852,"lon":151.25775,"timezone":"Australia/Brisbane"},{"name":"Geelong","ascii":"Geelong","country":"AU","lat":-38.14711,"lon":144.36069,"timezone":"Australia/Melbourne"},{"name":"Frankston East","ascii":"Frankston East","country":"AU","lat":-38.13333,"lon":145.13333,"timezone":"Australia/Melbourne"},{"name":"Frankston","ascii":"Frankston","country":"AU","lat":-38.14458,"lon":145.12291,"timezone":"Australia/Melbourne"},{"name":"Footscray","ascii":"Footscray","country":"AU","lat":-37.8,"lon":144.9,"timezone":"Australia/Melbourne"},{"name":"Fairfield","ascii":"Fairfield","country":"AU","lat":-33.86667,"lon":150.95,"timezone":"Australia/Sydney"},{"name":"Essendon","ascii":"Essendon","country":"AU","lat":-37.74981,"lon":144.9109,"timezone":"Australia/Melbourne"},{"name":"Epping","ascii":"Epping","country":"AU","lat":-37.65,"lon":145.03333,"timezone":"Australia/Melbourne"},{"name":"Epping","ascii":"Epping","country":"AU","lat":-33.77271,"lon":151.08184,"timezone":"Australia/Sydney"},{"name":"Engadine","ascii":"Engadine","country":"AU","lat":-34.06564,"lon":151.01266,"timezone":"Australia/Sydney"},{"name":"Eltham","ascii":"Eltham","country":"AU","lat":-37.73333,"lon":145.15,"timezone":"Australia/Melbourne"},{"name":"Eight Mile Plains","ascii":"Eight Mile Plains","country":"AU","lat":-27.58333,"lon":153.1,"timezone":"Australia/Brisbane"},{"name":"Echuca","ascii":"Echuca","country":"AU","lat":-36.14057,"lon":144.75185,"timezone":"Australia/Melbourne"},{"name":"Eastwood","ascii":"Eastwood","country":"AU","lat":-33.79176,"lon":151.08057,"timezone":"Australia/Sydney"},{"name":"Earlwood","ascii":"Earlwood","country":"AU","lat":-33.9209,"lon":151.12506,"timezone":"Australia/Sydney"},{"name":"Dubbo","ascii":"Dubbo","country":"AU","lat":-32.24295,"lon":148.60484,"timezone":"Australia/Sydney"},{"name":"Doreen","ascii":"Doreen","country":"AU","lat":-37.6,"lon":145.15,"timezone":"Australia/Melbourne"},{"name":"Doncaster East","ascii":"Doncaster East","country":"AU","lat":-37.78761,"lon":145.14888,"timezone":"Australia/Melbourne"},{"name":"Doncaster","ascii":"Doncaster","country":"AU","lat":-37.78828,"lon":145.12373,"timezone":"Australia/Melbourne"},{"name":"Devonport","ascii":"Devonport","country":"AU","lat":-41.17695,"lon":146.35152,"timezone":"Australia/Hobart"},{"name":"Deer Park","ascii":"Deer Park","country":"AU","lat":-37.76722,"lon":144.76657,"timezone":"Australia/Melbourne"},{"name":"Deception Bay","ascii":"Deception Bay","country":"AU","lat":-27.19354,"lon":153.02631,"timezone":"Australia/Brisbane"},{"name":"Dandenong","ascii":"Dandenong","country":"AU","lat":-37.98333,"lon":145.2,"timezone":"Australia/Melbourne"},{"name":"Croydon","ascii":"Croydon","country":"AU","lat":-37.8,"lon":145.28333,"timezone":"Australia/Melbourne"},{"name":"Cronulla","ascii":"Cronulla","country":"AU","lat":-34.06251,"lon":151.14961,"timezone":"Australia/Sydney"},{"name":"Cranbourne","ascii":"Cranbourne","country":"AU","lat":-38.11342,"lon":145.28326,"timezone":"Australia/Melbourne"},{"name":"Craigieburn","ascii":"Craigieburn","country":"AU","lat":-37.6,"lon":144.95,"timezone":"Australia/Melbourne"},{"name":"Corio","ascii":"Corio","country":"AU","lat":-38.08333,"lon":144.38333,"timezone":"Australia/Melbourne"},{"name":"Coorparoo","ascii":"Coorparoo","country":"AU","lat":-27.49325,"lon":153.05826,"timezone":"Australia/Brisbane"},{"name":"Coogee","ascii":"Coogee","country":"AU","lat":-33.9205,"lon":151.25522,"timezone":"Australia/Sydney"},{"name":"Coffs Harbour","ascii":"Coffs Harbour","country":"AU","lat":-30.29626,"lon":153.11351,"timezone":"Australia/Sydney"},{"name":"Coburg","ascii":"Coburg","country":"AU","lat":-37.75,"lon":144.96667,"timezone":"Australia/Melbourne"},{"name":"Clayton","ascii":"Clayton","country":"AU","lat":-37.91667,"lon":145.11667,"timezone":"Australia/Melbourne"},{"name":"Wollongong","ascii":"Wollongong","country":"AU","lat":-34.424,"lon":150.89345,"timezone":"Australia/Sydney"},{"name":"Chatswood","ascii":"Chatswood","country":"AU","lat":-33.8,"lon":151.18333,"timezone":"Australia/Sydney"},{"name":"Cessnock","ascii":"Cessnock","country":"AU","lat":-32.83211,"lon":151.35623,"timezone":"Australia/Sydney"},{"name":"Caulfield North","ascii":"Caulfield North","country":"AU","lat":-37.8739,"lon":145.02485,"timezone":"Australia/Melbourne"},{"name":"Castle Hill","ascii":"Castle Hill","country":"AU","lat":-33.73333,"lon":151,"timezone":"Australia/Sydney"},{"name":"Carrum Downs","ascii":"Carrum Downs","country":"AU","lat":-38.09968,"lon":145.17248,"timezone":"Australia/Melbourne"},{"name":"Carnegie","ascii":"Carnegie","country":"AU","lat":-37.89359,"lon":145.05534,"timezone":"Australia/Melbourne"},{"name":"Carlton","ascii":"Carlton","country":"AU","lat":-37.8,"lon":144.96667,"timezone":"Australia/Melbourne"},{"name":"Carlingford","ascii":"Carlingford","country":"AU","lat":-33.78269,"lon":151.04888,"timezone":"Australia/Sydney"},{"name":"Capalaba","ascii":"Capalaba","country":"AU","lat":-27.54333,"lon":153.20287,"timezone":"Australia/Brisbane"},{"name":"Canberra","ascii":"Canberra","country":"AU","lat":-35.28346,"lon":149.12807,"timezone":"Australia/Sydney"},{"name":"Camberwell","ascii":"Camberwell","country":"AU","lat":-37.84205,"lon":145.0694,"timezone":"Australia/Melbourne"},{"name":"Caloundra","ascii":"Caloundra","country":"AU","lat":-26.80346,"lon":153.12195,"timezone":"Australia/Brisbane"},{"name":"Cairns","ascii":"Cairns","country":"AU","lat":-16.92366,"lon":145.76613,"timezone":"Australia/Brisbane"},{"name":"Caboolture","ascii":"Caboolture","country":"AU","lat":-27.08465,"lon":152.9511,"timezone":"Australia/Brisbane"},{"name":"Burwood","ascii":"Burwood","country":"AU","lat":-33.88333,"lon":151.1,"timezone":"Australia/Sydney"},{"name":"Burnie","ascii":"Burnie","country":"AU","lat":-41.05584,"lon":145.90375,"timezone":"Australia/Hobart"},{"name":"Bundaberg","ascii":"Bundaberg","country":"AU","lat":-24.86621,"lon":152.3479,"timezone":"Australia/Brisbane"},{"name":"Buderim","ascii":"Buderim","country":"AU","lat":-26.68443,"lon":153.05705,"timezone":"Australia/Brisbane"},{"name":"Brunswick","ascii":"Brunswick","country":"AU","lat":-37.76667,"lon":144.96667,"timezone":"Australia/Melbourne"},{"name":"Broken Hill","ascii":"Broken Hill","country":"AU","lat":-31.9652,"lon":141.4512,"timezone":"Australia/Broken_Hill"},{"name":"Brisbane","ascii":"Brisbane","country":"AU","lat":-27.46794,"lon":153.02809,"timezone":"Australia/Brisbane"},{"name":"Brighton","ascii":"Brighton","country":"AU","lat":-37.90561,"lon":145.00279,"timezone":"Australia/Melbourne"},{"name":"Boronia","ascii":"Boronia","country":"AU","lat":-37.86667,"lon":145.28333,"timezone":"Australia/Melbourne"},{"name":"Blacktown","ascii":"Blacktown","country":"AU","lat":-33.76667,"lon":150.91667,"timezone":"Australia/Sydney"},{"name":"Bexley","ascii":"Bexley","country":"AU","lat":-33.95,"lon":151.11667,"timezone":"Australia/Sydney"},{"name":"Berwick","ascii":"Berwick","country":"AU","lat":-38.03333,"lon":145.35,"timezone":"Australia/Melbourne"},{"name":"Bentleigh East","ascii":"Bentleigh East","country":"AU","lat":-37.91928,"lon":145.05301,"timezone":"Australia/Melbourne"},{"name":"Bentleigh","ascii":"Bentleigh","country":"AU","lat":-37.91806,"lon":145.03544,"timezone":"Australia/Melbourne"},{"name":"Bendigo","ascii":"Bendigo","country":"AU","lat":-36.75818,"lon":144.28024,"timezone":"Australia/Melbourne"},{"name":"Baulkham Hills","ascii":"Baulkham Hills","country":"AU","lat":-33.75881,"lon":150.99292,"timezone":"Australia/Sydney"},